[
  {
    "station_name": "新黒部",
    "lines": [
      "富山地鉄本線"
    ],
    "lat": 36.87316273,
    "lon": 137.4801774,
    "pref": "富山県",
    "city": "黒部市"
  },
  {
    "station_name": "新高岡",
    "lines": [
      "JR城端線"
    ],
    "lat": 36.727004,
    "lon": 137.010459,
    "pref": "富山県",
    "city": "高岡市"
  },
  {
    "station_name": "新水俣",
    "lines": [
      "肥薩おれんじ鉄道線"
    ],
    "lat": 32.210825,
    "lon": 130.428893,
    "pref": "熊本県",
    "city": "水俣市"
  },
  {
    "station_name": "出水",
    "lines": [
      "肥薩おれんじ鉄道線"
    ],
    "lat": 32.089275,
    "lon": 130.357803,
    "pref": "鹿児島県",
    "city": "出水市"
  },
  {
    "station_name": "函館",
    "lines": [
      "JR函館本線(函館～長万部)",
      "道南いさりび鉄道線",
      "函館市電２系統",
      "函館市電５系統"
    ],
    "lat": 41.773709,
    "lon": 140.726413,
    "pref": "北海道",
    "city": "函館市"
  },
  {
    "station_name": "五稜郭",
    "lines": [
      "JR函館本線(函館～長万部)",
      "道南いさりび鉄道線"
    ],
    "lat": 41.803557,
    "lon": 140.733539,
    "pref": "北海道",
    "city": "函館市"
  },
  {
    "station_name": "桔梗",
    "lines": [
      "JR函館本線(函館～長万部)"
    ],
    "lat": 41.846457,
    "lon": 140.722952,
    "pref": "北海道",
    "city": "函館市"
  },
  {
    "station_name": "大中山",
    "lines": [
      "JR函館本線(函館～長万部)"
    ],
    "lat": 41.864641,
    "lon": 140.71358,
    "pref": "北海道",
    "city": "亀田郡七飯町"
  },
  {
    "station_name": "七飯",
    "lines": [
      "JR函館本線(函館～長万部)"
    ],
    "lat": 41.886971,
    "lon": 140.688556,
    "pref": "北海道",
    "city": "亀田郡七飯町"
  },
  {
    "station_name": "新函館北斗",
    "lines": [
      "JR函館本線(函館～長万部)"
    ],
    "lat": 41.9054,
    "lon": 140.646525,
    "pref": "北海道",
    "city": "北斗市市"
  },
  {
    "station_name": "大沼",
    "lines": [
      "JR函館本線(函館～長万部)"
    ],
    "lat": 41.971954,
    "lon": 140.669347,
    "pref": "北海道",
    "city": "亀田郡七飯町"
  },
  {
    "station_name": "大沼公園",
    "lines": [
      "JR函館本線(函館～長万部)"
    ],
    "lat": 41.980958,
    "lon": 140.669758,
    "pref": "北海道",
    "city": "亀田郡七飯町"
  },
  {
    "station_name": "赤井川",
    "lines": [
      "JR函館本線(函館～長万部)"
    ],
    "lat": 42.003267,
    "lon": 140.642678,
    "pref": "北海道",
    "city": "茅部郡森町"
  },
  {
    "station_name": "駒ケ岳",
    "lines": [
      "JR函館本線(函館～長万部)"
    ],
    "lat": 42.038809,
    "lon": 140.610476,
    "pref": "北海道",
    "city": "茅部郡森町"
  },
  {
    "station_name": "鹿部",
    "lines": [
      "JR函館本線(函館～長万部)"
    ],
    "lat": 42.06439,
    "lon": 140.771393,
    "pref": "北海道",
    "city": "茅部郡鹿部町"
  },
  {
    "station_name": "渡島沼尻",
    "lines": [
      "JR函館本線(函館～長万部)"
    ],
    "lat": 42.10706,
    "lon": 140.747596,
    "pref": "北海道",
    "city": "茅部郡森町"
  },
  {
    "station_name": "渡島砂原",
    "lines": [
      "JR函館本線(函館～長万部)"
    ],
    "lat": 42.12164,
    "lon": 140.689451,
    "pref": "北海道",
    "city": "茅部郡森町"
  },
  {
    "station_name": "掛澗",
    "lines": [
      "JR函館本線(函館～長万部)"
    ],
    "lat": 42.119205,
    "lon": 140.64598,
    "pref": "北海道",
    "city": "茅部郡森町"
  },
  {
    "station_name": "尾白内",
    "lines": [
      "JR函館本線(函館～長万部)"
    ],
    "lat": 42.111232,
    "lon": 140.613449,
    "pref": "北海道",
    "city": "茅部郡森町"
  },
  {
    "station_name": "東森",
    "lines": [
      "JR函館本線(函館～長万部)"
    ],
    "lat": 42.106823,
    "lon": 140.59353,
    "pref": "北海道",
    "city": "茅部郡森町"
  },
  {
    "station_name": "森",
    "lines": [
      "JR函館本線(函館～長万部)"
    ],
    "lat": 42.108917,
    "lon": 140.573846,
    "pref": "北海道",
    "city": "茅部郡森町"
  },
  {
    "station_name": "石倉",
    "lines": [
      "JR函館本線(函館～長万部)"
    ],
    "lat": 42.17285,
    "lon": 140.458436,
    "pref": "北海道",
    "city": "茅部郡森町"
  },
  {
    "station_name": "落部",
    "lines": [
      "JR函館本線(函館～長万部)"
    ],
    "lat": 42.187617,
    "lon": 140.420755,
    "pref": "北海道",
    "city": "二海郡八雲町"
  },
  {
    "station_name": "野田生",
    "lines": [
      "JR函館本線(函館～長万部)"
    ],
    "lat": 42.217104,
    "lon": 140.37586,
    "pref": "北海道",
    "city": "二海郡八雲町"
  },
  {
    "station_name": "山越",
    "lines": [
      "JR函館本線(函館～長万部)"
    ],
    "lat": 42.231172,
    "lon": 140.326593,
    "pref": "北海道",
    "city": "二海郡八雲町"
  },
  {
    "station_name": "八雲",
    "lines": [
      "JR函館本線(函館～長万部)"
    ],
    "lat": 42.253391,
    "lon": 140.273342,
    "pref": "北海道",
    "city": "二海郡八雲町"
  },
  {
    "station_name": "山崎",
    "lines": [
      "JR函館本線(函館～長万部)"
    ],
    "lat": 42.314635,
    "lon": 140.2746,
    "pref": "北海道",
    "city": "二海郡八雲町"
  },
  {
    "station_name": "黒岩",
    "lines": [
      "JR函館本線(函館～長万部)"
    ],
    "lat": 42.368296,
    "lon": 140.288173,
    "pref": "北海道",
    "city": "二海郡八雲町"
  },
  {
    "station_name": "国縫",
    "lines": [
      "JR函館本線(函館～長万部)"
    ],
    "lat": 42.439319,
    "lon": 140.320885,
    "pref": "北海道",
    "city": "山越郡長万部町"
  },
  {
    "station_name": "長万部",
    "lines": [
      "JR函館本線(函館～長万部)",
      "JR函館本線(長万部～小樽)",
      "JR室蘭本線(長万部・室蘭～苫小牧)"
    ],
    "lat": 42.512477,
    "lon": 140.37507,
    "pref": "北海道",
    "city": "山越郡長万部町"
  },
  {
    "station_name": "黒松内",
    "lines": [
      "JR函館本線(長万部～小樽)"
    ],
    "lat": 42.669608,
    "lon": 140.305704,
    "pref": "北海道",
    "city": "寿都郡黒松内町"
  },
  {
    "station_name": "熱郛",
    "lines": [
      "JR函館本線(長万部～小樽)"
    ],
    "lat": 42.675653,
    "lon": 140.375084,
    "pref": "北海道",
    "city": "寿都郡黒松内町"
  },
  {
    "station_name": "目名",
    "lines": [
      "JR函館本線(長万部～小樽)"
    ],
    "lat": 42.761432,
    "lon": 140.465742,
    "pref": "北海道",
    "city": "磯谷郡蘭越町"
  },
  {
    "station_name": "蘭越",
    "lines": [
      "JR函館本線(長万部～小樽)"
    ],
    "lat": 42.804542,
    "lon": 140.52894,
    "pref": "北海道",
    "city": "磯谷郡蘭越町"
  },
  {
    "station_name": "昆布",
    "lines": [
      "JR函館本線(長万部～小樽)"
    ],
    "lat": 42.797984,
    "lon": 140.596107,
    "pref": "北海道",
    "city": "磯谷郡蘭越町"
  },
  {
    "station_name": "ニセコ",
    "lines": [
      "JR函館本線(長万部～小樽)"
    ],
    "lat": 42.808746,
    "lon": 140.684588,
    "pref": "北海道",
    "city": "虻田郡ニセコ町"
  },
  {
    "station_name": "比羅夫",
    "lines": [
      "JR函館本線(長万部～小樽)"
    ],
    "lat": 42.84856,
    "lon": 140.722615,
    "pref": "北海道",
    "city": "虻田郡倶知安町"
  },
  {
    "station_name": "倶知安",
    "lines": [
      "JR函館本線(長万部～小樽)"
    ],
    "lat": 42.90164,
    "lon": 140.745471,
    "pref": "北海道",
    "city": "虻田郡倶知安町"
  },
  {
    "station_name": "小沢",
    "lines": [
      "JR函館本線(長万部～小樽)"
    ],
    "lat": 42.97185,
    "lon": 140.677657,
    "pref": "北海道",
    "city": "岩内郡共和町"
  },
  {
    "station_name": "銀山",
    "lines": [
      "JR函館本線(長万部～小樽)"
    ],
    "lat": 43.040888,
    "lon": 140.715321,
    "pref": "北海道",
    "city": "余市郡仁木町"
  },
  {
    "station_name": "然別",
    "lines": [
      "JR函館本線(長万部～小樽)"
    ],
    "lat": 43.12551,
    "lon": 140.737211,
    "pref": "北海道",
    "city": "余市郡仁木町"
  },
  {
    "station_name": "仁木",
    "lines": [
      "JR函館本線(長万部～小樽)"
    ],
    "lat": 43.154091,
    "lon": 140.770546,
    "pref": "北海道",
    "city": "余市郡仁木町"
  },
  {
    "station_name": "余市",
    "lines": [
      "JR函館本線(長万部～小樽)"
    ],
    "lat": 43.186558,
    "lon": 140.794686,
    "pref": "北海道",
    "city": "余市郡余市町"
  },
  {
    "station_name": "蘭島",
    "lines": [
      "JR函館本線(長万部～小樽)"
    ],
    "lat": 43.19651,
    "lon": 140.854643,
    "pref": "北海道",
    "city": "小樽市"
  },
  {
    "station_name": "塩谷",
    "lines": [
      "JR函館本線(長万部～小樽)"
    ],
    "lat": 43.202406,
    "lon": 140.924546,
    "pref": "北海道",
    "city": "小樽市"
  },
  {
    "station_name": "小樽",
    "lines": [
      "JR函館本線(長万部～小樽)",
      "JR函館本線(小樽～旭川)"
    ],
    "lat": 43.197172,
    "lon": 140.993653,
    "pref": "北海道",
    "city": "小樽市"
  },
  {
    "station_name": "南小樽",
    "lines": [
      "JR函館本線(小樽～旭川)"
    ],
    "lat": 43.186529,
    "lon": 141.007883,
    "pref": "北海道",
    "city": "小樽市"
  },
  {
    "station_name": "小樽築港",
    "lines": [
      "JR函館本線(小樽～旭川)"
    ],
    "lat": 43.180752,
    "lon": 141.029051,
    "pref": "北海道",
    "city": "小樽市"
  },
  {
    "station_name": "朝里",
    "lines": [
      "JR函館本線(小樽～旭川)"
    ],
    "lat": 43.176868,
    "lon": 141.063923,
    "pref": "北海道",
    "city": "小樽市"
  },
  {
    "station_name": "銭函",
    "lines": [
      "JR函館本線(小樽～旭川)"
    ],
    "lat": 43.143403,
    "lon": 141.159868,
    "pref": "北海道",
    "city": "小樽市"
  },
  {
    "station_name": "ほしみ",
    "lines": [
      "JR函館本線(小樽～旭川)"
    ],
    "lat": 43.13373,
    "lon": 141.191402,
    "pref": "北海道",
    "city": "札幌市手稲区"
  },
  {
    "station_name": "星置",
    "lines": [
      "JR函館本線(小樽～旭川)"
    ],
    "lat": 43.132375,
    "lon": 141.210856,
    "pref": "北海道",
    "city": "札幌市手稲区"
  },
  {
    "station_name": "稲穂",
    "lines": [
      "JR函館本線(小樽～旭川)"
    ],
    "lat": 43.128115,
    "lon": 141.222919,
    "pref": "北海道",
    "city": "札幌市手稲区"
  },
  {
    "station_name": "手稲",
    "lines": [
      "JR函館本線(小樽～旭川)"
    ],
    "lat": 43.120238,
    "lon": 141.243785,
    "pref": "北海道",
    "city": "札幌市手稲区"
  },
  {
    "station_name": "稲積公園",
    "lines": [
      "JR函館本線(小樽～旭川)"
    ],
    "lat": 43.112023,
    "lon": 141.257113,
    "pref": "北海道",
    "city": "札幌市手稲区"
  },
  {
    "station_name": "発寒",
    "lines": [
      "JR函館本線(小樽～旭川)"
    ],
    "lat": 43.099819,
    "lon": 141.277273,
    "pref": "北海道",
    "city": "札幌市西区"
  },
  {
    "station_name": "発寒中央",
    "lines": [
      "JR函館本線(小樽～旭川)"
    ],
    "lat": 43.089271,
    "lon": 141.294497,
    "pref": "北海道",
    "city": "札幌市西区"
  },
  {
    "station_name": "琴似",
    "lines": [
      "JR函館本線(小樽～旭川)"
    ],
    "lat": 43.081599,
    "lon": 141.307418,
    "pref": "北海道",
    "city": "札幌市西区"
  },
  {
    "station_name": "桑園",
    "lines": [
      "JR函館本線(小樽～旭川)",
      "JR札沼線"
    ],
    "lat": 43.070744,
    "lon": 141.332036,
    "pref": "北海道",
    "city": "札幌市中央区"
  },
  {
    "station_name": "札幌",
    "lines": [
      "JR函館本線(小樽～旭川)",
      "JR千歳線",
      "JR札沼線",
      "札幌市営地下鉄南北線",
      "札幌市営地下鉄東豊線"
    ],
    "lat": 43.068612,
    "lon": 141.350768,
    "pref": "北海道",
    "city": "札幌市北区"
  },
  {
    "station_name": "苗穂",
    "lines": [
      "JR函館本線(小樽～旭川)",
      "JR千歳線"
    ],
    "lat": 43.068539,
    "lon": 141.373631,
    "pref": "北海道",
    "city": "札幌市中央区"
  },
  {
    "station_name": "白石",
    "lines": [
      "JR函館本線(小樽～旭川)",
      "JR千歳線"
    ],
    "lat": 43.054715,
    "lon": 141.413612,
    "pref": "北海道",
    "city": "札幌市白石区"
  },
  {
    "station_name": "厚別",
    "lines": [
      "JR函館本線(小樽～旭川)"
    ],
    "lat": 43.045154,
    "lon": 141.46369,
    "pref": "北海道",
    "city": "札幌市厚別区"
  },
  {
    "station_name": "森林公園",
    "lines": [
      "JR函館本線(小樽～旭川)"
    ],
    "lat": 43.056456,
    "lon": 141.481332,
    "pref": "北海道",
    "city": "札幌市厚別区"
  },
  {
    "station_name": "大麻",
    "lines": [
      "JR函館本線(小樽～旭川)"
    ],
    "lat": 43.072382,
    "lon": 141.496925,
    "pref": "北海道",
    "city": "江別市"
  },
  {
    "station_name": "野幌",
    "lines": [
      "JR函館本線(小樽～旭川)"
    ],
    "lat": 43.092559,
    "lon": 141.52984,
    "pref": "北海道",
    "city": "江別市"
  },
  {
    "station_name": "高砂",
    "lines": [
      "JR函館本線(小樽～旭川)"
    ],
    "lat": 43.100084,
    "lon": 141.540752,
    "pref": "北海道",
    "city": "江別市"
  },
  {
    "station_name": "江別",
    "lines": [
      "JR函館本線(小樽～旭川)"
    ],
    "lat": 43.110189,
    "lon": 141.55679,
    "pref": "北海道",
    "city": "江別市"
  },
  {
    "station_name": "豊幌",
    "lines": [
      "JR函館本線(小樽～旭川)"
    ],
    "lat": 43.136446,
    "lon": 141.62466,
    "pref": "北海道",
    "city": "江別市"
  },
  {
    "station_name": "幌向",
    "lines": [
      "JR函館本線(小樽～旭川)"
    ],
    "lat": 43.151348,
    "lon": 141.655839,
    "pref": "北海道",
    "city": "岩見沢市"
  },
  {
    "station_name": "上幌向",
    "lines": [
      "JR函館本線(小樽～旭川)"
    ],
    "lat": 43.18183,
    "lon": 141.715391,
    "pref": "北海道",
    "city": "岩見沢市"
  },
  {
    "station_name": "岩見沢",
    "lines": [
      "JR函館本線(小樽～旭川)",
      "JR室蘭本線(苫小牧～岩見沢)"
    ],
    "lat": 43.204201,
    "lon": 141.759359,
    "pref": "北海道",
    "city": "岩見沢市"
  },
  {
    "station_name": "峰延",
    "lines": [
      "JR函館本線(小樽～旭川)"
    ],
    "lat": 43.264694,
    "lon": 141.814673,
    "pref": "北海道",
    "city": "美唄市"
  },
  {
    "station_name": "光珠内",
    "lines": [
      "JR函館本線(小樽～旭川)"
    ],
    "lat": 43.292658,
    "lon": 141.844655,
    "pref": "北海道",
    "city": "美唄市"
  },
  {
    "station_name": "美唄",
    "lines": [
      "JR函館本線(小樽～旭川)"
    ],
    "lat": 43.330751,
    "lon": 141.862157,
    "pref": "北海道",
    "city": "美唄市"
  },
  {
    "station_name": "茶志内",
    "lines": [
      "JR函館本線(小樽～旭川)"
    ],
    "lat": 43.369842,
    "lon": 141.87336,
    "pref": "北海道",
    "city": "美唄市"
  },
  {
    "station_name": "奈井江",
    "lines": [
      "JR函館本線(小樽～旭川)"
    ],
    "lat": 43.423718,
    "lon": 141.889115,
    "pref": "北海道",
    "city": "空知郡奈井江町"
  },
  {
    "station_name": "豊沼",
    "lines": [
      "JR函館本線(小樽～旭川)"
    ],
    "lat": 43.464224,
    "lon": 141.901032,
    "pref": "北海道",
    "city": "砂川市"
  },
  {
    "station_name": "砂川",
    "lines": [
      "JR函館本線(小樽～旭川)"
    ],
    "lat": 43.493468,
    "lon": 141.909642,
    "pref": "北海道",
    "city": "砂川市"
  },
  {
    "station_name": "滝川",
    "lines": [
      "JR函館本線(小樽～旭川)",
      "JR根室本線(滝川～富良野)"
    ],
    "lat": 43.555278,
    "lon": 141.900807,
    "pref": "北海道",
    "city": "滝川市"
  },
  {
    "station_name": "江部乙",
    "lines": [
      "JR函館本線(小樽～旭川)"
    ],
    "lat": 43.627564,
    "lon": 141.935937,
    "pref": "北海道",
    "city": "滝川市"
  },
  {
    "station_name": "妹背牛",
    "lines": [
      "JR函館本線(小樽～旭川)"
    ],
    "lat": 43.690841,
    "lon": 141.966591,
    "pref": "北海道",
    "city": "雨竜郡妹背牛町"
  },
  {
    "station_name": "深川",
    "lines": [
      "JR函館本線(小樽～旭川)"
    ],
    "lat": 43.721021,
    "lon": 142.041642,
    "pref": "北海道",
    "city": "深川市"
  },
  {
    "station_name": "納内",
    "lines": [
      "JR函館本線(小樽～旭川)"
    ],
    "lat": 43.732509,
    "lon": 142.130072,
    "pref": "北海道",
    "city": "深川市"
  },
  {
    "station_name": "近文",
    "lines": [
      "JR函館本線(小樽～旭川)"
    ],
    "lat": 43.789193,
    "lon": 142.325327,
    "pref": "北海道",
    "city": "旭川市"
  },
  {
    "station_name": "旭川",
    "lines": [
      "JR函館本線(小樽～旭川)",
      "JR富良野線",
      "JR宗谷本線",
      "JR石北本線"
    ],
    "lat": 43.763492,
    "lon": 142.357803,
    "pref": "北海道",
    "city": "旭川市"
  },
  {
    "station_name": "静狩",
    "lines": [
      "JR室蘭本線(長万部・室蘭～苫小牧)"
    ],
    "lat": 42.584065,
    "lon": 140.460025,
    "pref": "北海道",
    "city": "山越郡長万部町"
  },
  {
    "station_name": "小幌",
    "lines": [
      "JR室蘭本線(長万部・室蘭～苫小牧)"
    ],
    "lat": 42.589731,
    "lon": 140.537361,
    "pref": "北海道",
    "city": "虻田郡豊浦町"
  },
  {
    "station_name": "礼文",
    "lines": [
      "JR室蘭本線(長万部・室蘭～苫小牧)"
    ],
    "lat": 42.580422,
    "lon": 140.595013,
    "pref": "北海道",
    "city": "虻田郡豊浦町"
  },
  {
    "station_name": "大岸",
    "lines": [
      "JR室蘭本線(長万部・室蘭～苫小牧)"
    ],
    "lat": 42.585969,
    "lon": 140.639036,
    "pref": "北海道",
    "city": "虻田郡豊浦町"
  },
  {
    "station_name": "豊浦",
    "lines": [
      "JR室蘭本線(長万部・室蘭～苫小牧)"
    ],
    "lat": 42.580323,
    "lon": 140.71536,
    "pref": "北海道",
    "city": "虻田郡豊浦町"
  },
  {
    "station_name": "洞爺",
    "lines": [
      "JR室蘭本線(長万部・室蘭～苫小牧)"
    ],
    "lat": 42.55055,
    "lon": 140.763959,
    "pref": "北海道",
    "city": "虻田郡洞爺湖町"
  },
  {
    "station_name": "有珠",
    "lines": [
      "JR室蘭本線(長万部・室蘭～苫小牧)"
    ],
    "lat": 42.513267,
    "lon": 140.793969,
    "pref": "北海道",
    "city": "伊達市"
  },
  {
    "station_name": "長和",
    "lines": [
      "JR室蘭本線(長万部・室蘭～苫小牧)"
    ],
    "lat": 42.488262,
    "lon": 140.833783,
    "pref": "北海道",
    "city": "伊達市"
  },
  {
    "station_name": "伊達紋別",
    "lines": [
      "JR室蘭本線(長万部・室蘭～苫小牧)"
    ],
    "lat": 42.469395,
    "lon": 140.855802,
    "pref": "北海道",
    "city": "伊達市"
  },
  {
    "station_name": "北舟岡",
    "lines": [
      "JR室蘭本線(長万部・室蘭～苫小牧)"
    ],
    "lat": 42.450528,
    "lon": 140.880259,
    "pref": "北海道",
    "city": "伊達市"
  },
  {
    "station_name": "稀府",
    "lines": [
      "JR室蘭本線(長万部・室蘭～苫小牧)"
    ],
    "lat": 42.425567,
    "lon": 140.898836,
    "pref": "北海道",
    "city": "伊達市"
  },
  {
    "station_name": "黄金",
    "lines": [
      "JR室蘭本線(長万部・室蘭～苫小牧)"
    ],
    "lat": 42.386441,
    "lon": 140.907781,
    "pref": "北海道",
    "city": "伊達市"
  },
  {
    "station_name": "崎守",
    "lines": [
      "JR室蘭本線(長万部・室蘭～苫小牧)"
    ],
    "lat": 42.373968,
    "lon": 140.927141,
    "pref": "北海道",
    "city": "室蘭市"
  },
  {
    "station_name": "本輪西",
    "lines": [
      "JR室蘭本線(長万部・室蘭～苫小牧)"
    ],
    "lat": 42.358734,
    "lon": 140.977561,
    "pref": "北海道",
    "city": "室蘭市"
  },
  {
    "station_name": "室蘭",
    "lines": [
      "JR室蘭本線(長万部・室蘭～苫小牧)"
    ],
    "lat": 42.317864,
    "lon": 140.97571,
    "pref": "北海道",
    "city": "室蘭市"
  },
  {
    "station_name": "母恋",
    "lines": [
      "JR室蘭本線(長万部・室蘭～苫小牧)"
    ],
    "lat": 42.317295,
    "lon": 140.990018,
    "pref": "北海道",
    "city": "室蘭市"
  },
  {
    "station_name": "御崎",
    "lines": [
      "JR室蘭本線(長万部・室蘭～苫小牧)"
    ],
    "lat": 42.329014,
    "lon": 140.993881,
    "pref": "北海道",
    "city": "室蘭市"
  },
  {
    "station_name": "輪西",
    "lines": [
      "JR室蘭本線(長万部・室蘭～苫小牧)"
    ],
    "lat": 42.333775,
    "lon": 141.005743,
    "pref": "北海道",
    "city": "室蘭市"
  },
  {
    "station_name": "東室蘭",
    "lines": [
      "JR室蘭本線(長万部・室蘭～苫小牧)"
    ],
    "lat": 42.349374,
    "lon": 141.026411,
    "pref": "北海道",
    "city": "室蘭市"
  },
  {
    "station_name": "鷲別",
    "lines": [
      "JR室蘭本線(長万部・室蘭～苫小牧)"
    ],
    "lat": 42.35953,
    "lon": 141.042759,
    "pref": "北海道",
    "city": "登別市"
  },
  {
    "station_name": "幌別",
    "lines": [
      "JR室蘭本線(長万部・室蘭～苫小牧)"
    ],
    "lat": 42.409782,
    "lon": 141.107293,
    "pref": "北海道",
    "city": "登別市"
  },
  {
    "station_name": "富浦",
    "lines": [
      "JR室蘭本線(長万部・室蘭～苫小牧)"
    ],
    "lat": 42.441957,
    "lon": 141.156878,
    "pref": "北海道",
    "city": "登別市"
  },
  {
    "station_name": "登別",
    "lines": [
      "JR室蘭本線(長万部・室蘭～苫小牧)"
    ],
    "lat": 42.45207,
    "lon": 141.180931,
    "pref": "北海道",
    "city": "登別市"
  },
  {
    "station_name": "虎杖浜",
    "lines": [
      "JR室蘭本線(長万部・室蘭～苫小牧)"
    ],
    "lat": 42.464695,
    "lon": 141.215092,
    "pref": "北海道",
    "city": "白老郡白老町"
  },
  {
    "station_name": "竹浦",
    "lines": [
      "JR室蘭本線(長万部・室蘭～苫小牧)"
    ],
    "lat": 42.49284,
    "lon": 141.260395,
    "pref": "北海道",
    "city": "白老郡白老町"
  },
  {
    "station_name": "北吉原",
    "lines": [
      "JR室蘭本線(長万部・室蘭～苫小牧)"
    ],
    "lat": 42.509119,
    "lon": 141.286199,
    "pref": "北海道",
    "city": "白老郡白老町"
  },
  {
    "station_name": "萩野",
    "lines": [
      "JR室蘭本線(長万部・室蘭～苫小牧)"
    ],
    "lat": 42.521159,
    "lon": 141.30603,
    "pref": "北海道",
    "city": "白老郡白老町"
  },
  {
    "station_name": "白老",
    "lines": [
      "JR室蘭本線(長万部・室蘭～苫小牧)"
    ],
    "lat": 42.55474,
    "lon": 141.360054,
    "pref": "北海道",
    "city": "白老郡白老町"
  },
  {
    "station_name": "社台",
    "lines": [
      "JR室蘭本線(長万部・室蘭～苫小牧)"
    ],
    "lat": 42.578682,
    "lon": 141.417433,
    "pref": "北海道",
    "city": "白老郡白老町"
  },
  {
    "station_name": "錦岡",
    "lines": [
      "JR室蘭本線(長万部・室蘭～苫小牧)"
    ],
    "lat": 42.6025,
    "lon": 141.48722,
    "pref": "北海道",
    "city": "苫小牧市"
  },
  {
    "station_name": "糸井",
    "lines": [
      "JR室蘭本線(長万部・室蘭～苫小牧)"
    ],
    "lat": 42.6225,
    "lon": 141.546187,
    "pref": "北海道",
    "city": "苫小牧市"
  },
  {
    "station_name": "青葉",
    "lines": [
      "JR室蘭本線(長万部・室蘭～苫小牧)"
    ],
    "lat": 42.62999,
    "lon": 141.568278,
    "pref": "北海道",
    "city": "苫小牧市"
  },
  {
    "station_name": "苫小牧",
    "lines": [
      "JR室蘭本線(長万部・室蘭～苫小牧)",
      "JR室蘭本線(苫小牧～岩見沢)",
      "JR千歳線",
      "JR日高本線"
    ],
    "lat": 42.639665,
    "lon": 141.596837,
    "pref": "北海道",
    "city": "苫小牧市"
  },
  {
    "station_name": "沼ノ端",
    "lines": [
      "JR室蘭本線(苫小牧～岩見沢)",
      "JR千歳線"
    ],
    "lat": 42.672057,
    "lon": 141.693132,
    "pref": "北海道",
    "city": "苫小牧市"
  },
  {
    "station_name": "遠浅",
    "lines": [
      "JR室蘭本線(苫小牧～岩見沢)"
    ],
    "lat": 42.729533,
    "lon": 141.769568,
    "pref": "北海道",
    "city": "勇払郡安平町"
  },
  {
    "station_name": "早来",
    "lines": [
      "JR室蘭本線(苫小牧～岩見沢)"
    ],
    "lat": 42.765237,
    "lon": 141.814106,
    "pref": "北海道",
    "city": "勇払郡安平町"
  },
  {
    "station_name": "安平",
    "lines": [
      "JR室蘭本線(苫小牧～岩見沢)"
    ],
    "lat": 42.814007,
    "lon": 141.825283,
    "pref": "北海道",
    "city": "勇払郡安平町"
  },
  {
    "station_name": "追分",
    "lines": [
      "JR室蘭本線(苫小牧～岩見沢)",
      "JR石勝線"
    ],
    "lat": 42.873316,
    "lon": 141.810678,
    "pref": "北海道",
    "city": "勇払郡安平町"
  },
  {
    "station_name": "三川",
    "lines": [
      "JR室蘭本線(苫小牧～岩見沢)"
    ],
    "lat": 42.945029,
    "lon": 141.800778,
    "pref": "北海道",
    "city": "夕張郡由仁町"
  },
  {
    "station_name": "古山",
    "lines": [
      "JR室蘭本線(苫小牧～岩見沢)"
    ],
    "lat": 42.975256,
    "lon": 141.793969,
    "pref": "北海道",
    "city": "夕張郡由仁町"
  },
  {
    "station_name": "由仁",
    "lines": [
      "JR室蘭本線(苫小牧～岩見沢)"
    ],
    "lat": 43.012206,
    "lon": 141.785868,
    "pref": "北海道",
    "city": "夕張郡由仁町"
  },
  {
    "station_name": "栗山",
    "lines": [
      "JR室蘭本線(苫小牧～岩見沢)"
    ],
    "lat": 43.058164,
    "lon": 141.775603,
    "pref": "北海道",
    "city": "夕張郡栗山町"
  },
  {
    "station_name": "栗丘",
    "lines": [
      "JR室蘭本線(苫小牧～岩見沢)"
    ],
    "lat": 43.085444,
    "lon": 141.744333,
    "pref": "北海道",
    "city": "岩見沢市"
  },
  {
    "station_name": "栗沢",
    "lines": [
      "JR室蘭本線(苫小牧～岩見沢)"
    ],
    "lat": 43.120367,
    "lon": 141.739743,
    "pref": "北海道",
    "city": "岩見沢市"
  },
  {
    "station_name": "志文",
    "lines": [
      "JR室蘭本線(苫小牧～岩見沢)"
    ],
    "lat": 43.158903,
    "lon": 141.744443,
    "pref": "北海道",
    "city": "岩見沢市"
  },
  {
    "station_name": "赤平",
    "lines": [
      "JR根室本線(滝川～富良野)"
    ],
    "lat": 43.555144,
    "lon": 142.048669,
    "pref": "北海道",
    "city": "赤平市"
  },
  {
    "station_name": "茂尻",
    "lines": [
      "JR根室本線(滝川～富良野)"
    ],
    "lat": 43.537314,
    "lon": 142.082156,
    "pref": "北海道",
    "city": "赤平市"
  },
  {
    "station_name": "平岸",
    "lines": [
      "JR根室本線(滝川～富良野)"
    ],
    "lat": 43.541401,
    "lon": 142.123872,
    "pref": "北海道",
    "city": "赤平市"
  },
  {
    "station_name": "芦別",
    "lines": [
      "JR根室本線(滝川～富良野)"
    ],
    "lat": 43.516636,
    "lon": 142.184543,
    "pref": "北海道",
    "city": "芦別市"
  },
  {
    "station_name": "上芦別",
    "lines": [
      "JR根室本線(滝川～富良野)"
    ],
    "lat": 43.48871,
    "lon": 142.210855,
    "pref": "北海道",
    "city": "芦別市"
  },
  {
    "station_name": "野花南",
    "lines": [
      "JR根室本線(滝川～富良野)"
    ],
    "lat": 43.474418,
    "lon": 142.261772,
    "pref": "北海道",
    "city": "芦別市"
  },
  {
    "station_name": "富良野",
    "lines": [
      "JR根室本線(滝川～富良野)",
      "JR富良野線"
    ],
    "lat": 43.347114,
    "lon": 142.391374,
    "pref": "北海道",
    "city": "富良野市"
  },
  {
    "station_name": "新得",
    "lines": [
      "JR根室本線(新得～釧路)",
      "JR石勝線"
    ],
    "lat": 43.082501,
    "lon": 142.832432,
    "pref": "北海道",
    "city": "上川郡新得町"
  },
  {
    "station_name": "十勝清水",
    "lines": [
      "JR根室本線(新得～釧路)"
    ],
    "lat": 43.012892,
    "lon": 142.879535,
    "pref": "北海道",
    "city": "上川郡清水町"
  },
  {
    "station_name": "御影",
    "lines": [
      "JR根室本線(新得～釧路)"
    ],
    "lat": 42.942418,
    "lon": 142.935739,
    "pref": "北海道",
    "city": "上川郡清水町"
  },
  {
    "station_name": "芽室",
    "lines": [
      "JR根室本線(新得～釧路)"
    ],
    "lat": 42.909846,
    "lon": 143.047991,
    "pref": "北海道",
    "city": "河西郡芽室町"
  },
  {
    "station_name": "大成",
    "lines": [
      "JR根室本線(新得～釧路)"
    ],
    "lat": 42.91605619,
    "lon": 143.0696659,
    "pref": "北海道",
    "city": "河西郡芽室町"
  },
  {
    "station_name": "西帯広",
    "lines": [
      "JR根室本線(新得～釧路)"
    ],
    "lat": 42.923941,
    "lon": 143.126351,
    "pref": "北海道",
    "city": "帯広市"
  },
  {
    "station_name": "柏林台",
    "lines": [
      "JR根室本線(新得～釧路)"
    ],
    "lat": 42.928877,
    "lon": 143.1645,
    "pref": "北海道",
    "city": "帯広市"
  },
  {
    "station_name": "帯広",
    "lines": [
      "JR根室本線(新得～釧路)"
    ],
    "lat": 42.917997,
    "lon": 143.20195,
    "pref": "北海道",
    "city": "帯広市"
  },
  {
    "station_name": "札内",
    "lines": [
      "JR根室本線(新得～釧路)"
    ],
    "lat": 42.912697,
    "lon": 143.256248,
    "pref": "北海道",
    "city": "中川郡幕別町"
  },
  {
    "station_name": "幕別",
    "lines": [
      "JR根室本線(新得～釧路)"
    ],
    "lat": 42.90784,
    "lon": 143.359293,
    "pref": "北海道",
    "city": "中川郡幕別町"
  },
  {
    "station_name": "利別",
    "lines": [
      "JR根室本線(新得～釧路)"
    ],
    "lat": 42.934706,
    "lon": 143.424445,
    "pref": "北海道",
    "city": "中川郡池田町"
  },
  {
    "station_name": "池田",
    "lines": [
      "JR根室本線(新得～釧路)"
    ],
    "lat": 42.922186,
    "lon": 143.453033,
    "pref": "北海道",
    "city": "中川郡池田町"
  },
  {
    "station_name": "十弗",
    "lines": [
      "JR根室本線(新得～釧路)"
    ],
    "lat": 42.855781,
    "lon": 143.500797,
    "pref": "北海道",
    "city": "中川郡豊頃町"
  },
  {
    "station_name": "豊頃",
    "lines": [
      "JR根室本線(新得～釧路)"
    ],
    "lat": 42.817548,
    "lon": 143.538615,
    "pref": "北海道",
    "city": "中川郡豊頃町"
  },
  {
    "station_name": "新吉野",
    "lines": [
      "JR根室本線(新得～釧路)"
    ],
    "lat": 42.778238,
    "lon": 143.60826,
    "pref": "北海道",
    "city": "十勝郡浦幌町"
  },
  {
    "station_name": "浦幌",
    "lines": [
      "JR根室本線(新得～釧路)"
    ],
    "lat": 42.810849,
    "lon": 143.651568,
    "pref": "北海道",
    "city": "十勝郡浦幌町"
  },
  {
    "station_name": "厚内",
    "lines": [
      "JR根室本線(新得～釧路)"
    ],
    "lat": 42.809539,
    "lon": 143.814389,
    "pref": "北海道",
    "city": "十勝郡浦幌町"
  },
  {
    "station_name": "音別",
    "lines": [
      "JR根室本線(新得～釧路)"
    ],
    "lat": 42.888997,
    "lon": 143.932442,
    "pref": "北海道",
    "city": "釧路市"
  },
  {
    "station_name": "白糠",
    "lines": [
      "JR根室本線(新得～釧路)"
    ],
    "lat": 42.956161,
    "lon": 144.076879,
    "pref": "北海道",
    "city": "白糠郡白糠町"
  },
  {
    "station_name": "西庶路",
    "lines": [
      "JR根室本線(新得～釧路)"
    ],
    "lat": 42.976138,
    "lon": 144.129826,
    "pref": "北海道",
    "city": "白糠郡白糠町"
  },
  {
    "station_name": "庶路",
    "lines": [
      "JR根室本線(新得～釧路)"
    ],
    "lat": 42.983601,
    "lon": 144.150018,
    "pref": "北海道",
    "city": "白糠郡白糠町"
  },
  {
    "station_name": "大楽毛",
    "lines": [
      "JR根室本線(新得～釧路)"
    ],
    "lat": 43.009078,
    "lon": 144.273879,
    "pref": "北海道",
    "city": "釧路市"
  },
  {
    "station_name": "新大楽毛",
    "lines": [
      "JR根室本線(新得～釧路)"
    ],
    "lat": 43.009423,
    "lon": 144.295558,
    "pref": "北海道",
    "city": "釧路市"
  },
  {
    "station_name": "新富士",
    "lines": [
      "JR根室本線(新得～釧路)"
    ],
    "lat": 43.001605,
    "lon": 144.350758,
    "pref": "北海道",
    "city": "釧路市"
  },
  {
    "station_name": "釧路",
    "lines": [
      "JR根室本線(新得～釧路)",
      "花咲線",
      "JR釧網本線"
    ],
    "lat": 42.990584,
    "lon": 144.381983,
    "pref": "北海道",
    "city": "釧路市"
  },
  {
    "station_name": "東釧路",
    "lines": [
      "花咲線",
      "JR釧網本線"
    ],
    "lat": 42.995207,
    "lon": 144.411307,
    "pref": "北海道",
    "city": "釧路市"
  },
  {
    "station_name": "武佐",
    "lines": [
      "花咲線"
    ],
    "lat": 42.991364,
    "lon": 144.426681,
    "pref": "北海道",
    "city": "釧路市"
  },
  {
    "station_name": "別保",
    "lines": [
      "花咲線"
    ],
    "lat": 42.994384,
    "lon": 144.469596,
    "pref": "北海道",
    "city": "釧路郡釧路町"
  },
  {
    "station_name": "上尾幌",
    "lines": [
      "花咲線"
    ],
    "lat": 43.032893,
    "lon": 144.61239,
    "pref": "北海道",
    "city": "厚岸郡厚岸町"
  },
  {
    "station_name": "尾幌",
    "lines": [
      "花咲線"
    ],
    "lat": 43.018463,
    "lon": 144.703758,
    "pref": "北海道",
    "city": "厚岸郡厚岸町"
  },
  {
    "station_name": "門静",
    "lines": [
      "花咲線"
    ],
    "lat": 43.057581,
    "lon": 144.782638,
    "pref": "北海道",
    "city": "厚岸郡厚岸町"
  },
  {
    "station_name": "厚岸",
    "lines": [
      "花咲線"
    ],
    "lat": 43.056248,
    "lon": 144.841355,
    "pref": "北海道",
    "city": "厚岸郡厚岸町"
  },
  {
    "station_name": "茶内",
    "lines": [
      "花咲線"
    ],
    "lat": 43.129266,
    "lon": 145.02801,
    "pref": "北海道",
    "city": "厚岸郡浜中町"
  },
  {
    "station_name": "浜中",
    "lines": [
      "花咲線"
    ],
    "lat": 43.15754,
    "lon": 145.099657,
    "pref": "北海道",
    "city": "厚岸郡浜中町"
  },
  {
    "station_name": "姉別",
    "lines": [
      "花咲線"
    ],
    "lat": 43.196201,
    "lon": 145.194716,
    "pref": "北海道",
    "city": "厚岸郡浜中町"
  },
  {
    "station_name": "厚床",
    "lines": [
      "花咲線"
    ],
    "lat": 43.228224,
    "lon": 145.252096,
    "pref": "北海道",
    "city": "根室市"
  },
  {
    "station_name": "別当賀",
    "lines": [
      "花咲線"
    ],
    "lat": 43.218427,
    "lon": 145.423593,
    "pref": "北海道",
    "city": "根室市"
  },
  {
    "station_name": "落石",
    "lines": [
      "花咲線"
    ],
    "lat": 43.198335,
    "lon": 145.519449,
    "pref": "北海道",
    "city": "根室市"
  },
  {
    "station_name": "昆布盛",
    "lines": [
      "花咲線"
    ],
    "lat": 43.228593,
    "lon": 145.542444,
    "pref": "北海道",
    "city": "根室市"
  },
  {
    "station_name": "西和田",
    "lines": [
      "花咲線"
    ],
    "lat": 43.268043,
    "lon": 145.541817,
    "pref": "北海道",
    "city": "根室市"
  },
  {
    "station_name": "根室",
    "lines": [
      "花咲線"
    ],
    "lat": 43.326923,
    "lon": 145.582707,
    "pref": "北海道",
    "city": "根室市"
  },
  {
    "station_name": "植苗",
    "lines": [
      "JR千歳線"
    ],
    "lat": 42.713645,
    "lon": 141.735344,
    "pref": "北海道",
    "city": "苫小牧市"
  },
  {
    "station_name": "新千歳空港",
    "lines": [
      "JR千歳線"
    ],
    "lat": 42.787546,
    "lon": 141.680823,
    "pref": "北海道",
    "city": "千歳市"
  },
  {
    "station_name": "南千歳",
    "lines": [
      "JR千歳線",
      "JR石勝線"
    ],
    "lat": 42.80804,
    "lon": 141.675388,
    "pref": "北海道",
    "city": "千歳市"
  },
  {
    "station_name": "千歳",
    "lines": [
      "JR千歳線"
    ],
    "lat": 42.82811,
    "lon": 141.651934,
    "pref": "北海道",
    "city": "千歳市"
  },
  {
    "station_name": "長都",
    "lines": [
      "JR千歳線"
    ],
    "lat": 42.852178,
    "lon": 141.622987,
    "pref": "北海道",
    "city": "千歳市"
  },
  {
    "station_name": "サッポロビール庭園",
    "lines": [
      "JR千歳線"
    ],
    "lat": 42.866812,
    "lon": 141.605616,
    "pref": "北海道",
    "city": "恵庭市"
  },
  {
    "station_name": "恵庭",
    "lines": [
      "JR千歳線"
    ],
    "lat": 42.883076,
    "lon": 141.586234,
    "pref": "北海道",
    "city": "恵庭市"
  },
  {
    "station_name": "恵み野",
    "lines": [
      "JR千歳線"
    ],
    "lat": 42.902704,
    "lon": 141.574429,
    "pref": "北海道",
    "city": "恵庭市"
  },
  {
    "station_name": "島松",
    "lines": [
      "JR千歳線"
    ],
    "lat": 42.922504,
    "lon": 141.573117,
    "pref": "北海道",
    "city": "恵庭市"
  },
  {
    "station_name": "北広島",
    "lines": [
      "JR千歳線"
    ],
    "lat": 42.979239,
    "lon": 141.563115,
    "pref": "北海道",
    "city": "北広島市"
  },
  {
    "station_name": "上野幌",
    "lines": [
      "JR千歳線"
    ],
    "lat": 43.016177,
    "lon": 141.487317,
    "pref": "北海道",
    "city": "札幌市厚別区"
  },
  {
    "station_name": "新札幌",
    "lines": [
      "JR千歳線",
      "札幌市営地下鉄東西線"
    ],
    "lat": 43.038732,
    "lon": 141.47237,
    "pref": "北海道",
    "city": "札幌市厚別区"
  },
  {
    "station_name": "平和",
    "lines": [
      "JR千歳線"
    ],
    "lat": 43.04695,
    "lon": 141.437967,
    "pref": "北海道",
    "city": "札幌市白石区"
  },
  {
    "station_name": "川端",
    "lines": [
      "JR石勝線"
    ],
    "lat": 42.914721,
    "lon": 141.894791,
    "pref": "北海道",
    "city": "夕張郡由仁町"
  },
  {
    "station_name": "新夕張",
    "lines": [
      "JR石勝線"
    ],
    "lat": 42.936611,
    "lon": 142.03657,
    "pref": "北海道",
    "city": "夕張市"
  },
  {
    "station_name": "占冠",
    "lines": [
      "JR石勝線"
    ],
    "lat": 42.993088,
    "lon": 142.400078,
    "pref": "北海道",
    "city": "勇払郡占冠村"
  },
  {
    "station_name": "トマム",
    "lines": [
      "JR石勝線"
    ],
    "lat": 43.055913,
    "lon": 142.610937,
    "pref": "北海道",
    "city": "勇払郡占冠村"
  },
  {
    "station_name": "勇払",
    "lines": [
      "JR日高本線"
    ],
    "lat": 42.632805,
    "lon": 141.727667,
    "pref": "北海道",
    "city": "苫小牧市"
  },
  {
    "station_name": "浜厚真",
    "lines": [
      "JR日高本線"
    ],
    "lat": 42.606725,
    "lon": 141.837071,
    "pref": "北海道",
    "city": "勇払郡厚真町"
  },
  {
    "station_name": "鵡川",
    "lines": [
      "JR日高本線"
    ],
    "lat": 42.578953,
    "lon": 141.923892,
    "pref": "北海道",
    "city": "勇払郡むかわ町"
  },
  {
    "station_name": "八軒",
    "lines": [
      "JR札沼線"
    ],
    "lat": 43.085845,
    "lon": 141.319145,
    "pref": "北海道",
    "city": "札幌市西区"
  },
  {
    "station_name": "新川",
    "lines": [
      "JR札沼線"
    ],
    "lat": 43.098604,
    "lon": 141.323824,
    "pref": "北海道",
    "city": "札幌市北区"
  },
  {
    "station_name": "新琴似",
    "lines": [
      "JR札沼線"
    ],
    "lat": 43.112928,
    "lon": 141.335105,
    "pref": "北海道",
    "city": "札幌市北区"
  },
  {
    "station_name": "太平",
    "lines": [
      "JR札沼線"
    ],
    "lat": 43.12401,
    "lon": 141.349526,
    "pref": "北海道",
    "city": "札幌市北区"
  },
  {
    "station_name": "百合が原",
    "lines": [
      "JR札沼線"
    ],
    "lat": 43.131476,
    "lon": 141.360672,
    "pref": "北海道",
    "city": "札幌市北区"
  },
  {
    "station_name": "篠路",
    "lines": [
      "JR札沼線"
    ],
    "lat": 43.145152,
    "lon": 141.364323,
    "pref": "北海道",
    "city": "札幌市北区"
  },
  {
    "station_name": "拓北",
    "lines": [
      "JR札沼線"
    ],
    "lat": 43.155568,
    "lon": 141.381013,
    "pref": "北海道",
    "city": "札幌市北区"
  },
  {
    "station_name": "あいの里教育大",
    "lines": [
      "JR札沼線"
    ],
    "lat": 43.15528,
    "lon": 141.39842,
    "pref": "北海道",
    "city": "札幌市北区"
  },
  {
    "station_name": "あいの里公園",
    "lines": [
      "JR札沼線"
    ],
    "lat": 43.161206,
    "lon": 141.413276,
    "pref": "北海道",
    "city": "札幌市北区"
  },
  {
    "station_name": "太美",
    "lines": [
      "JR札沼線"
    ],
    "lat": 43.189801,
    "lon": 141.449066,
    "pref": "北海道",
    "city": "石狩郡当別町"
  },
  {
    "station_name": "当別",
    "lines": [
      "JR札沼線"
    ],
    "lat": 43.22208,
    "lon": 141.513764,
    "pref": "北海道",
    "city": "石狩郡当別町"
  },
  {
    "station_name": "北海道医療大学",
    "lines": [
      "JR札沼線"
    ],
    "lat": 43.230925,
    "lon": 141.54995,
    "pref": "北海道",
    "city": "石狩郡当別町"
  },
  {
    "station_name": "ロイズタウン",
    "lines": [
      "JR札沼線"
    ],
    "lat": 43.179589,
    "lon": 141.436236,
    "pref": "北海道",
    "city": "石狩郡当別町"
  },
  {
    "station_name": "神楽岡",
    "lines": [
      "JR富良野線"
    ],
    "lat": 43.745033,
    "lon": 142.358257,
    "pref": "北海道",
    "city": "旭川市"
  },
  {
    "station_name": "緑が丘",
    "lines": [
      "JR富良野線"
    ],
    "lat": 43.731074,
    "lon": 142.365701,
    "pref": "北海道",
    "city": "旭川市"
  },
  {
    "station_name": "西御料",
    "lines": [
      "JR富良野線"
    ],
    "lat": 43.720834,
    "lon": 142.371507,
    "pref": "北海道",
    "city": "旭川市"
  },
  {
    "station_name": "西瑞穂",
    "lines": [
      "JR富良野線"
    ],
    "lat": 43.70242,
    "lon": 142.381982,
    "pref": "北海道",
    "city": "旭川市"
  },
  {
    "station_name": "西神楽",
    "lines": [
      "JR富良野線"
    ],
    "lat": 43.682181,
    "lon": 142.393677,
    "pref": "北海道",
    "city": "旭川市"
  },
  {
    "station_name": "西聖和",
    "lines": [
      "JR富良野線"
    ],
    "lat": 43.669047,
    "lon": 142.415209,
    "pref": "北海道",
    "city": "旭川市"
  },
  {
    "station_name": "千代ケ岡",
    "lines": [
      "JR富良野線"
    ],
    "lat": 43.643737,
    "lon": 142.451024,
    "pref": "北海道",
    "city": "旭川市"
  },
  {
    "station_name": "北美瑛",
    "lines": [
      "JR富良野線"
    ],
    "lat": 43.617884,
    "lon": 142.479594,
    "pref": "北海道",
    "city": "上川郡美瑛町"
  },
  {
    "station_name": "美瑛",
    "lines": [
      "JR富良野線"
    ],
    "lat": 43.591186,
    "lon": 142.461639,
    "pref": "北海道",
    "city": "上川郡美瑛町"
  },
  {
    "station_name": "美馬牛",
    "lines": [
      "JR富良野線"
    ],
    "lat": 43.537408,
    "lon": 142.447192,
    "pref": "北海道",
    "city": "上川郡美瑛町"
  },
  {
    "station_name": "上富良野",
    "lines": [
      "JR富良野線"
    ],
    "lat": 43.464046,
    "lon": 142.468761,
    "pref": "北海道",
    "city": "空知郡上富良野町"
  },
  {
    "station_name": "西中",
    "lines": [
      "JR富良野線"
    ],
    "lat": 43.429569,
    "lon": 142.441876,
    "pref": "北海道",
    "city": "空知郡中富良野町"
  },
  {
    "station_name": "ラベンダー畑",
    "lines": [
      "JR富良野線"
    ],
    "lat": 43.42065,
    "lon": 142.434032,
    "pref": "北海道",
    "city": "空知郡中富良野町"
  },
  {
    "station_name": "中富良野",
    "lines": [
      "JR富良野線"
    ],
    "lat": 43.405704,
    "lon": 142.420812,
    "pref": "北海道",
    "city": "空知郡中富良野町"
  },
  {
    "station_name": "鹿討",
    "lines": [
      "JR富良野線"
    ],
    "lat": 43.387499,
    "lon": 142.404812,
    "pref": "北海道",
    "city": "空知郡中富良野町"
  },
  {
    "station_name": "学田",
    "lines": [
      "JR富良野線"
    ],
    "lat": 43.366234,
    "lon": 142.386118,
    "pref": "北海道",
    "city": "富良野市"
  },
  {
    "station_name": "旭川四条",
    "lines": [
      "JR宗谷本線",
      "JR石北本線"
    ],
    "lat": 43.764056,
    "lon": 142.375815,
    "pref": "北海道",
    "city": "旭川市"
  },
  {
    "station_name": "新旭川",
    "lines": [
      "JR宗谷本線",
      "JR石北本線"
    ],
    "lat": 43.780174,
    "lon": 142.384789,
    "pref": "北海道",
    "city": "旭川市"
  },
  {
    "station_name": "永山",
    "lines": [
      "JR宗谷本線"
    ],
    "lat": 43.814158,
    "lon": 142.434382,
    "pref": "北海道",
    "city": "旭川市"
  },
  {
    "station_name": "北永山",
    "lines": [
      "JR宗谷本線"
    ],
    "lat": 43.826736,
    "lon": 142.454493,
    "pref": "北海道",
    "city": "旭川市"
  },
  {
    "station_name": "比布",
    "lines": [
      "JR宗谷本線"
    ],
    "lat": 43.874478,
    "lon": 142.471294,
    "pref": "北海道",
    "city": "上川郡比布町"
  },
  {
    "station_name": "蘭留",
    "lines": [
      "JR宗谷本線"
    ],
    "lat": 43.925072,
    "lon": 142.473699,
    "pref": "北海道",
    "city": "上川郡比布町"
  },
  {
    "station_name": "塩狩",
    "lines": [
      "JR宗谷本線"
    ],
    "lat": 43.96794,
    "lon": 142.4552,
    "pref": "北海道",
    "city": "上川郡和寒町"
  },
  {
    "station_name": "和寒",
    "lines": [
      "JR宗谷本線"
    ],
    "lat": 44.026932,
    "lon": 142.415309,
    "pref": "北海道",
    "city": "上川郡和寒町"
  },
  {
    "station_name": "剣淵",
    "lines": [
      "JR宗谷本線"
    ],
    "lat": 44.09643,
    "lon": 142.364754,
    "pref": "北海道",
    "city": "上川郡剣淵町"
  },
  {
    "station_name": "士別",
    "lines": [
      "JR宗谷本線"
    ],
    "lat": 44.172536,
    "lon": 142.388247,
    "pref": "北海道",
    "city": "士別市"
  },
  {
    "station_name": "多寄",
    "lines": [
      "JR宗谷本線"
    ],
    "lat": 44.241296,
    "lon": 142.396315,
    "pref": "北海道",
    "city": "士別市"
  },
  {
    "station_name": "瑞穂",
    "lines": [
      "JR宗谷本線"
    ],
    "lat": 44.266349,
    "lon": 142.396244,
    "pref": "北海道",
    "city": "士別市"
  },
  {
    "station_name": "風連",
    "lines": [
      "JR宗谷本線"
    ],
    "lat": 44.292238,
    "lon": 142.421624,
    "pref": "北海道",
    "city": "名寄市"
  },
  {
    "station_name": "名寄高校",
    "lines": [
      "JR宗谷本線"
    ],
    "lat": 44.330938813348,
    "lon": 142.46548195769,
    "pref": "北海道",
    "city": "名寄市"
  },
  {
    "station_name": "名寄",
    "lines": [
      "JR宗谷本線"
    ],
    "lat": 44.349403,
    "lon": 142.465207,
    "pref": "北海道",
    "city": "名寄市"
  },
  {
    "station_name": "日進",
    "lines": [
      "JR宗谷本線"
    ],
    "lat": 44.381713,
    "lon": 142.467354,
    "pref": "北海道",
    "city": "名寄市"
  },
  {
    "station_name": "智恵文",
    "lines": [
      "JR宗谷本線"
    ],
    "lat": 44.455553,
    "lon": 142.414772,
    "pref": "北海道",
    "city": "名寄市"
  },
  {
    "station_name": "智北",
    "lines": [
      "JR宗谷本線"
    ],
    "lat": 44.46103,
    "lon": 142.394007,
    "pref": "北海道",
    "city": "名寄市"
  },
  {
    "station_name": "美深",
    "lines": [
      "JR宗谷本線"
    ],
    "lat": 44.482951,
    "lon": 142.350597,
    "pref": "北海道",
    "city": "中川郡美深町"
  },
  {
    "station_name": "天塩川温泉",
    "lines": [
      "JR宗谷本線"
    ],
    "lat": 44.665041,
    "lon": 142.258682,
    "pref": "北海道",
    "city": "中川郡音威子府村"
  },
  {
    "station_name": "咲来",
    "lines": [
      "JR宗谷本線"
    ],
    "lat": 44.692702,
    "lon": 142.267569,
    "pref": "北海道",
    "city": "中川郡音威子府村"
  },
  {
    "station_name": "音威子府",
    "lines": [
      "JR宗谷本線"
    ],
    "lat": 44.729448,
    "lon": 142.259883,
    "pref": "北海道",
    "city": "中川郡音威子府村"
  },
  {
    "station_name": "筬島",
    "lines": [
      "JR宗谷本線"
    ],
    "lat": 44.738883,
    "lon": 142.197777,
    "pref": "北海道",
    "city": "中川郡音威子府村"
  },
  {
    "station_name": "佐久",
    "lines": [
      "JR宗谷本線"
    ],
    "lat": 44.743986,
    "lon": 142.048562,
    "pref": "北海道",
    "city": "中川郡中川町"
  },
  {
    "station_name": "天塩中川",
    "lines": [
      "JR宗谷本線"
    ],
    "lat": 44.81186,
    "lon": 142.075335,
    "pref": "北海道",
    "city": "中川郡中川町"
  },
  {
    "station_name": "問寒別",
    "lines": [
      "JR宗谷本線"
    ],
    "lat": 44.91233,
    "lon": 142.025562,
    "pref": "北海道",
    "city": "天塩郡幌延町"
  },
  {
    "station_name": "糠南",
    "lines": [
      "JR宗谷本線"
    ],
    "lat": 44.920778,
    "lon": 142.000931,
    "pref": "北海道",
    "city": "天塩郡幌延町"
  },
  {
    "station_name": "幌延",
    "lines": [
      "JR宗谷本線"
    ],
    "lat": 45.014503,
    "lon": 141.84569,
    "pref": "北海道",
    "city": "天塩郡幌延町"
  },
  {
    "station_name": "下沼",
    "lines": [
      "JR宗谷本線"
    ],
    "lat": 45.037146,
    "lon": 141.758218,
    "pref": "北海道",
    "city": "天塩郡幌延町"
  },
  {
    "station_name": "豊富",
    "lines": [
      "JR宗谷本線"
    ],
    "lat": 45.104624,
    "lon": 141.772088,
    "pref": "北海道",
    "city": "天塩郡豊富町"
  },
  {
    "station_name": "兜沼",
    "lines": [
      "JR宗谷本線"
    ],
    "lat": 45.220236,
    "lon": 141.6972,
    "pref": "北海道",
    "city": "天塩郡豊富町"
  },
  {
    "station_name": "勇知",
    "lines": [
      "JR宗谷本線"
    ],
    "lat": 45.259339,
    "lon": 141.685151,
    "pref": "北海道",
    "city": "稚内市"
  },
  {
    "station_name": "南稚内",
    "lines": [
      "JR宗谷本線"
    ],
    "lat": 45.398166,
    "lon": 141.683026,
    "pref": "北海道",
    "city": "稚内市"
  },
  {
    "station_name": "稚内",
    "lines": [
      "JR宗谷本線"
    ],
    "lat": 45.416995,
    "lon": 141.676999,
    "pref": "北海道",
    "city": "稚内市"
  },
  {
    "station_name": "南永山",
    "lines": [
      "JR石北本線"
    ],
    "lat": 43.78055,
    "lon": 142.40853,
    "pref": "北海道",
    "city": "旭川市"
  },
  {
    "station_name": "東旭川",
    "lines": [
      "JR石北本線"
    ],
    "lat": 43.776571,
    "lon": 142.441544,
    "pref": "北海道",
    "city": "旭川市"
  },
  {
    "station_name": "桜岡",
    "lines": [
      "JR石北本線"
    ],
    "lat": 43.801812,
    "lon": 142.486968,
    "pref": "北海道",
    "city": "旭川市"
  },
  {
    "station_name": "当麻",
    "lines": [
      "JR石北本線"
    ],
    "lat": 43.825477,
    "lon": 142.516987,
    "pref": "北海道",
    "city": "上川郡当麻町"
  },
  {
    "station_name": "伊香牛",
    "lines": [
      "JR石北本線"
    ],
    "lat": 43.876025,
    "lon": 142.525227,
    "pref": "北海道",
    "city": "上川郡当麻町"
  },
  {
    "station_name": "愛別",
    "lines": [
      "JR石北本線"
    ],
    "lat": 43.898635,
    "lon": 142.582176,
    "pref": "北海道",
    "city": "上川郡愛別町"
  },
  {
    "station_name": "中愛別",
    "lines": [
      "JR石北本線"
    ],
    "lat": 43.896216,
    "lon": 142.655424,
    "pref": "北海道",
    "city": "上川郡愛別町"
  },
  {
    "station_name": "安足間",
    "lines": [
      "JR石北本線"
    ],
    "lat": 43.852011,
    "lon": 142.693868,
    "pref": "北海道",
    "city": "上川郡愛別町"
  },
  {
    "station_name": "上川",
    "lines": [
      "JR石北本線"
    ],
    "lat": 43.848508,
    "lon": 142.766895,
    "pref": "北海道",
    "city": "上川郡上川町"
  },
  {
    "station_name": "白滝",
    "lines": [
      "JR石北本線"
    ],
    "lat": 43.884435,
    "lon": 143.180795,
    "pref": "北海道",
    "city": "紋別郡遠軽町"
  },
  {
    "station_name": "丸瀬布",
    "lines": [
      "JR石北本線"
    ],
    "lat": 44.006354,
    "lon": 143.335817,
    "pref": "北海道",
    "city": "紋別郡遠軽町"
  },
  {
    "station_name": "瀬戸瀬",
    "lines": [
      "JR石北本線"
    ],
    "lat": 44.008753,
    "lon": 143.420937,
    "pref": "北海道",
    "city": "紋別郡遠軽町"
  },
  {
    "station_name": "遠軽",
    "lines": [
      "JR石北本線"
    ],
    "lat": 44.060278,
    "lon": 143.520667,
    "pref": "北海道",
    "city": "紋別郡遠軽町"
  },
  {
    "station_name": "安国",
    "lines": [
      "JR石北本線"
    ],
    "lat": 43.993322,
    "lon": 143.535762,
    "pref": "北海道",
    "city": "紋別郡遠軽町"
  },
  {
    "station_name": "生田原",
    "lines": [
      "JR石北本線"
    ],
    "lat": 43.923674,
    "lon": 143.534627,
    "pref": "北海道",
    "city": "紋別郡遠軽町"
  },
  {
    "station_name": "西留辺蘂",
    "lines": [
      "JR石北本線"
    ],
    "lat": 43.785345,
    "lon": 143.603257,
    "pref": "北海道",
    "city": "北見市"
  },
  {
    "station_name": "留辺蘂",
    "lines": [
      "JR石北本線"
    ],
    "lat": 43.785534,
    "lon": 143.621394,
    "pref": "北海道",
    "city": "北見市"
  },
  {
    "station_name": "相内",
    "lines": [
      "JR石北本線"
    ],
    "lat": 43.795948,
    "lon": 143.756449,
    "pref": "北海道",
    "city": "北見市"
  },
  {
    "station_name": "東相内",
    "lines": [
      "JR石北本線"
    ],
    "lat": 43.805466,
    "lon": 143.809499,
    "pref": "北海道",
    "city": "北見市"
  },
  {
    "station_name": "西北見",
    "lines": [
      "JR石北本線"
    ],
    "lat": 43.803114,
    "lon": 143.841586,
    "pref": "北海道",
    "city": "北見市"
  },
  {
    "station_name": "北見",
    "lines": [
      "JR石北本線"
    ],
    "lat": 43.805504,
    "lon": 143.898167,
    "pref": "北海道",
    "city": "北見市"
  },
  {
    "station_name": "柏陽",
    "lines": [
      "JR石北本線"
    ],
    "lat": 43.824911,
    "lon": 143.916737,
    "pref": "北海道",
    "city": "北見市"
  },
  {
    "station_name": "愛し野",
    "lines": [
      "JR石北本線"
    ],
    "lat": 43.841426,
    "lon": 143.932962,
    "pref": "北海道",
    "city": "北見市"
  },
  {
    "station_name": "端野",
    "lines": [
      "JR石北本線"
    ],
    "lat": 43.851172,
    "lon": 143.942336,
    "pref": "北海道",
    "city": "北見市"
  },
  {
    "station_name": "緋牛内",
    "lines": [
      "JR石北本線"
    ],
    "lat": 43.880431,
    "lon": 143.999887,
    "pref": "北海道",
    "city": "北見市"
  },
  {
    "station_name": "美幌",
    "lines": [
      "JR石北本線"
    ],
    "lat": 43.836967,
    "lon": 144.10563,
    "pref": "北海道",
    "city": "網走郡美幌町"
  },
  {
    "station_name": "西女満別",
    "lines": [
      "JR石北本線"
    ],
    "lat": 43.880057,
    "lon": 144.148372,
    "pref": "北海道",
    "city": "網走郡大空町"
  },
  {
    "station_name": "女満別",
    "lines": [
      "JR石北本線"
    ],
    "lat": 43.915886,
    "lon": 144.170665,
    "pref": "北海道",
    "city": "網走郡大空町"
  },
  {
    "station_name": "呼人",
    "lines": [
      "JR石北本線"
    ],
    "lat": 43.963695,
    "lon": 144.218945,
    "pref": "北海道",
    "city": "網走市"
  },
  {
    "station_name": "網走",
    "lines": [
      "JR石北本線",
      "JR釧網本線"
    ],
    "lat": 44.019873,
    "lon": 144.254156,
    "pref": "北海道",
    "city": "網走市"
  },
  {
    "station_name": "桂台",
    "lines": [
      "JR釧網本線"
    ],
    "lat": 44.016913,
    "lon": 144.273223,
    "pref": "北海道",
    "city": "網走市"
  },
  {
    "station_name": "鱒浦",
    "lines": [
      "JR釧網本線"
    ],
    "lat": 43.982481,
    "lon": 144.296526,
    "pref": "北海道",
    "city": "網走市"
  },
  {
    "station_name": "藻琴",
    "lines": [
      "JR釧網本線"
    ],
    "lat": 43.968358,
    "lon": 144.320079,
    "pref": "北海道",
    "city": "網走市"
  },
  {
    "station_name": "北浜",
    "lines": [
      "JR釧網本線"
    ],
    "lat": 43.958549,
    "lon": 144.352541,
    "pref": "北海道",
    "city": "網走市"
  },
  {
    "station_name": "原生花園",
    "lines": [
      "JR釧網本線"
    ],
    "lat": 43.941033,
    "lon": 144.41443,
    "pref": "北海道",
    "city": "斜里郡小清水町"
  },
  {
    "station_name": "浜小清水",
    "lines": [
      "JR釧網本線"
    ],
    "lat": 43.934077,
    "lon": 144.453187,
    "pref": "北海道",
    "city": "斜里郡小清水町"
  },
  {
    "station_name": "止別",
    "lines": [
      "JR釧網本線"
    ],
    "lat": 43.921558,
    "lon": 144.519818,
    "pref": "北海道",
    "city": "斜里郡小清水町"
  },
  {
    "station_name": "知床斜里",
    "lines": [
      "JR釧網本線"
    ],
    "lat": 43.910749,
    "lon": 144.661647,
    "pref": "北海道",
    "city": "斜里郡斜里町"
  },
  {
    "station_name": "中斜里",
    "lines": [
      "JR釧網本線"
    ],
    "lat": 43.874608,
    "lon": 144.659033,
    "pref": "北海道",
    "city": "斜里郡斜里町"
  },
  {
    "station_name": "清里町",
    "lines": [
      "JR釧網本線"
    ],
    "lat": 43.83871,
    "lon": 144.593948,
    "pref": "北海道",
    "city": "斜里郡清里町"
  },
  {
    "station_name": "札弦",
    "lines": [
      "JR釧網本線"
    ],
    "lat": 43.786574,
    "lon": 144.531526,
    "pref": "北海道",
    "city": "斜里郡清里町"
  },
  {
    "station_name": "緑",
    "lines": [
      "JR釧網本線"
    ],
    "lat": 43.718282,
    "lon": 144.505499,
    "pref": "北海道",
    "city": "斜里郡清里町"
  },
  {
    "station_name": "川湯温泉",
    "lines": [
      "JR釧網本線"
    ],
    "lat": 43.616258,
    "lon": 144.457749,
    "pref": "北海道",
    "city": "川上郡弟子屈町"
  },
  {
    "station_name": "美留和",
    "lines": [
      "JR釧網本線"
    ],
    "lat": 43.555316,
    "lon": 144.437656,
    "pref": "北海道",
    "city": "川上郡弟子屈町"
  },
  {
    "station_name": "摩周",
    "lines": [
      "JR釧網本線"
    ],
    "lat": 43.487373,
    "lon": 144.463981,
    "pref": "北海道",
    "city": "川上郡弟子屈町"
  },
  {
    "station_name": "磯分内",
    "lines": [
      "JR釧網本線"
    ],
    "lat": 43.379389,
    "lon": 144.554322,
    "pref": "北海道",
    "city": "川上郡標茶町"
  },
  {
    "station_name": "標茶",
    "lines": [
      "JR釧網本線"
    ],
    "lat": 43.298472,
    "lon": 144.608434,
    "pref": "北海道",
    "city": "川上郡標茶町"
  },
  {
    "station_name": "茅沼",
    "lines": [
      "JR釧網本線"
    ],
    "lat": 43.202097,
    "lon": 144.503788,
    "pref": "北海道",
    "city": "川上郡標茶町"
  },
  {
    "station_name": "塘路",
    "lines": [
      "JR釧網本線"
    ],
    "lat": 43.151739,
    "lon": 144.496817,
    "pref": "北海道",
    "city": "川上郡標茶町"
  },
  {
    "station_name": "細岡",
    "lines": [
      "JR釧網本線"
    ],
    "lat": 43.105055,
    "lon": 144.469683,
    "pref": "北海道",
    "city": "釧路郡釧路町"
  },
  {
    "station_name": "釧路湿原",
    "lines": [
      "JR釧網本線"
    ],
    "lat": 43.100647,
    "lon": 144.447799,
    "pref": "北海道",
    "city": "釧路郡釧路町"
  },
  {
    "station_name": "遠矢",
    "lines": [
      "JR釧網本線"
    ],
    "lat": 43.047878,
    "lon": 144.458367,
    "pref": "北海道",
    "city": "釧路郡釧路町"
  },
  {
    "station_name": "中小国",
    "lines": [
      "JR海峡線",
      "JR津軽線"
    ],
    "lat": 41.051702,
    "lon": 140.596798,
    "pref": "青森県",
    "city": "東津軽郡外ヶ浜町"
  },
  {
    "station_name": "奥津軽いまべつ",
    "lines": [
      "JR海峡線",
      "JR津軽線"
    ],
    "lat": 41.145083,
    "lon": 140.515444,
    "pref": "青森県",
    "city": "東津軽郡今別町"
  },
  {
    "station_name": "木古内",
    "lines": [
      "JR海峡線",
      "道南いさりび鉄道線"
    ],
    "lat": 41.677642,
    "lon": 140.434004,
    "pref": "北海道",
    "city": "上磯郡木古内町"
  },
  {
    "station_name": "札苅",
    "lines": [
      "道南いさりび鉄道線"
    ],
    "lat": 41.699271,
    "lon": 140.468097,
    "pref": "北海道",
    "city": "上磯郡木古内町"
  },
  {
    "station_name": "泉沢",
    "lines": [
      "道南いさりび鉄道線"
    ],
    "lat": 41.700867,
    "lon": 140.506797,
    "pref": "北海道",
    "city": "上磯郡木古内町"
  },
  {
    "station_name": "釜谷",
    "lines": [
      "道南いさりび鉄道線"
    ],
    "lat": 41.712153,
    "lon": 140.53718,
    "pref": "北海道",
    "city": "上磯郡木古内町"
  },
  {
    "station_name": "渡島当別",
    "lines": [
      "道南いさりび鉄道線"
    ],
    "lat": 41.737309,
    "lon": 140.579109,
    "pref": "北海道",
    "city": "北斗市"
  },
  {
    "station_name": "茂辺地",
    "lines": [
      "道南いさりび鉄道線"
    ],
    "lat": 41.766604,
    "lon": 140.600561,
    "pref": "北海道",
    "city": "北斗市"
  },
  {
    "station_name": "上磯",
    "lines": [
      "道南いさりび鉄道線"
    ],
    "lat": 41.81956,
    "lon": 140.640599,
    "pref": "北海道",
    "city": "北斗市"
  },
  {
    "station_name": "清川口",
    "lines": [
      "道南いさりび鉄道線"
    ],
    "lat": 41.824615,
    "lon": 140.652906,
    "pref": "北海道",
    "city": "北斗市"
  },
  {
    "station_name": "久根別",
    "lines": [
      "道南いさりび鉄道線"
    ],
    "lat": 41.826727,
    "lon": 140.666468,
    "pref": "北海道",
    "city": "北斗市"
  },
  {
    "station_name": "東久根別",
    "lines": [
      "道南いさりび鉄道線"
    ],
    "lat": 41.826005,
    "lon": 140.679731,
    "pref": "北海道",
    "city": "北斗市"
  },
  {
    "station_name": "七重浜",
    "lines": [
      "道南いさりび鉄道線"
    ],
    "lat": 41.817643,
    "lon": 140.707957,
    "pref": "北海道",
    "city": "北斗市"
  },
  {
    "station_name": "陸奥市川",
    "lines": [
      "青い森鉄道線"
    ],
    "lat": 40.563235,
    "lon": 141.439308,
    "pref": "青森県",
    "city": "八戸市市"
  },
  {
    "station_name": "下田",
    "lines": [
      "青い森鉄道線"
    ],
    "lat": 40.591958,
    "lon": 141.407965,
    "pref": "青森県",
    "city": "上北郡おいらせ町"
  },
  {
    "station_name": "向山",
    "lines": [
      "青い森鉄道線"
    ],
    "lat": 40.629544,
    "lon": 141.370392,
    "pref": "青森県",
    "city": "上北郡おいらせ町"
  },
  {
    "station_name": "三沢",
    "lines": [
      "青い森鉄道線"
    ],
    "lat": 40.669735,
    "lon": 141.353649,
    "pref": "青森県",
    "city": "三沢市"
  },
  {
    "station_name": "小川原",
    "lines": [
      "青い森鉄道線"
    ],
    "lat": 40.709893,
    "lon": 141.29972,
    "pref": "青森県",
    "city": "上北郡東北町"
  },
  {
    "station_name": "上北町",
    "lines": [
      "青い森鉄道線"
    ],
    "lat": 40.732993,
    "lon": 141.264801,
    "pref": "青森県",
    "city": "上北郡東北町"
  },
  {
    "station_name": "乙供",
    "lines": [
      "青い森鉄道線"
    ],
    "lat": 40.780328,
    "lon": 141.213039,
    "pref": "青森県",
    "city": "上北郡東北町"
  },
  {
    "station_name": "千曳",
    "lines": [
      "青い森鉄道線"
    ],
    "lat": 40.804662,
    "lon": 141.152876,
    "pref": "青森県",
    "city": "上北郡東北町"
  },
  {
    "station_name": "野辺地",
    "lines": [
      "はまなすベイライン大湊線",
      "青い森鉄道線"
    ],
    "lat": 40.855142,
    "lon": 141.119603,
    "pref": "青森県",
    "city": "上北郡野辺地町"
  },
  {
    "station_name": "狩場沢",
    "lines": [
      "青い森鉄道線"
    ],
    "lat": 40.900335,
    "lon": 141.071274,
    "pref": "青森県",
    "city": "東津軽郡平内町"
  },
  {
    "station_name": "清水川",
    "lines": [
      "青い森鉄道線"
    ],
    "lat": 40.921801,
    "lon": 141.02465,
    "pref": "青森県",
    "city": "東津軽郡平内町"
  },
  {
    "station_name": "小湊",
    "lines": [
      "青い森鉄道線"
    ],
    "lat": 40.929703,
    "lon": 140.953953,
    "pref": "青森県",
    "city": "東津軽郡平内町"
  },
  {
    "station_name": "西平内",
    "lines": [
      "青い森鉄道線"
    ],
    "lat": 40.918138,
    "lon": 140.913146,
    "pref": "青森県",
    "city": "東津軽郡平内町"
  },
  {
    "station_name": "浅虫温泉",
    "lines": [
      "青い森鉄道線"
    ],
    "lat": 40.890976,
    "lon": 140.862221,
    "pref": "青森県",
    "city": "青森市"
  },
  {
    "station_name": "野内",
    "lines": [
      "青い森鉄道線"
    ],
    "lat": 40.84615948,
    "lon": 140.8169067,
    "pref": "青森県",
    "city": "青森市"
  },
  {
    "station_name": "矢田前",
    "lines": [
      "青い森鉄道線"
    ],
    "lat": 40.833744,
    "lon": 140.807151,
    "pref": "青森県",
    "city": "青森市"
  },
  {
    "station_name": "小柳",
    "lines": [
      "青い森鉄道線"
    ],
    "lat": 40.818223,
    "lon": 140.798149,
    "pref": "青森県",
    "city": "青森市"
  },
  {
    "station_name": "東青森",
    "lines": [
      "青い森鉄道線"
    ],
    "lat": 40.810402,
    "lon": 140.782143,
    "pref": "青森県",
    "city": "青森市"
  },
  {
    "station_name": "青森",
    "lines": [
      "JR奥羽本線(新庄～青森)",
      "JR津軽線",
      "青い森鉄道線"
    ],
    "lat": 40.828668,
    "lon": 140.734738,
    "pref": "青森県",
    "city": "青森市"
  },
  {
    "station_name": "新庄",
    "lines": [
      "JR奥羽本線(新庄～青森)",
      "山形線",
      "奥の細道最上川ライン",
      "奥の細道湯けむりライン"
    ],
    "lat": 38.76256,
    "lon": 140.306064,
    "pref": "山形県",
    "city": "新庄市"
  },
  {
    "station_name": "泉田",
    "lines": [
      "JR奥羽本線(新庄～青森)"
    ],
    "lat": 38.811758,
    "lon": 140.310039,
    "pref": "山形県",
    "city": "新庄市"
  },
  {
    "station_name": "羽前豊里",
    "lines": [
      "JR奥羽本線(新庄～青森)"
    ],
    "lat": 38.836748,
    "lon": 140.242247,
    "pref": "山形県",
    "city": "最上郡鮭川村"
  },
  {
    "station_name": "真室川",
    "lines": [
      "JR奥羽本線(新庄～青森)"
    ],
    "lat": 38.858243,
    "lon": 140.254814,
    "pref": "山形県",
    "city": "最上郡真室川町"
  },
  {
    "station_name": "釜淵",
    "lines": [
      "JR奥羽本線(新庄～青森)"
    ],
    "lat": 38.93281,
    "lon": 140.263864,
    "pref": "山形県",
    "city": "最上郡真室川町"
  },
  {
    "station_name": "大滝",
    "lines": [
      "JR奥羽本線(新庄～青森)"
    ],
    "lat": 38.971485,
    "lon": 140.320199,
    "pref": "山形県",
    "city": "最上郡真室川町"
  },
  {
    "station_name": "及位",
    "lines": [
      "JR奥羽本線(新庄～青森)"
    ],
    "lat": 38.992983,
    "lon": 140.361164,
    "pref": "山形県",
    "city": "最上郡真室川町"
  },
  {
    "station_name": "院内",
    "lines": [
      "JR奥羽本線(新庄～青森)"
    ],
    "lat": 39.049706,
    "lon": 140.4138,
    "pref": "秋田県",
    "city": "湯沢市"
  },
  {
    "station_name": "横堀",
    "lines": [
      "JR奥羽本線(新庄～青森)"
    ],
    "lat": 39.064533,
    "lon": 140.45131,
    "pref": "秋田県",
    "city": "湯沢市"
  },
  {
    "station_name": "三関",
    "lines": [
      "JR奥羽本線(新庄～青森)"
    ],
    "lat": 39.110196,
    "lon": 140.483796,
    "pref": "秋田県",
    "city": "湯沢市"
  },
  {
    "station_name": "上湯沢",
    "lines": [
      "JR奥羽本線(新庄～青森)"
    ],
    "lat": 39.134221,
    "lon": 140.485262,
    "pref": "秋田県",
    "city": "湯沢市"
  },
  {
    "station_name": "湯沢",
    "lines": [
      "JR奥羽本線(新庄～青森)"
    ],
    "lat": 39.163443,
    "lon": 140.487011,
    "pref": "秋田県",
    "city": "湯沢市"
  },
  {
    "station_name": "下湯沢",
    "lines": [
      "JR奥羽本線(新庄～青森)"
    ],
    "lat": 39.197196,
    "lon": 140.50249,
    "pref": "秋田県",
    "city": "湯沢市"
  },
  {
    "station_name": "十文字",
    "lines": [
      "JR奥羽本線(新庄～青森)"
    ],
    "lat": 39.221186,
    "lon": 140.526287,
    "pref": "秋田県",
    "city": "横手市"
  },
  {
    "station_name": "醍醐",
    "lines": [
      "JR奥羽本線(新庄～青森)"
    ],
    "lat": 39.248716,
    "lon": 140.53853,
    "pref": "秋田県",
    "city": "横手市"
  },
  {
    "station_name": "柳田",
    "lines": [
      "JR奥羽本線(新庄～青森)"
    ],
    "lat": 39.276385,
    "lon": 140.553856,
    "pref": "秋田県",
    "city": "横手市"
  },
  {
    "station_name": "横手",
    "lines": [
      "JR奥羽本線(新庄～青森)",
      "JR北上線"
    ],
    "lat": 39.310146,
    "lon": 140.5604,
    "pref": "秋田県",
    "city": "横手市"
  },
  {
    "station_name": "後三年",
    "lines": [
      "JR奥羽本線(新庄～青森)"
    ],
    "lat": 39.364891,
    "lon": 140.538397,
    "pref": "秋田県",
    "city": "仙北郡美郷町"
  },
  {
    "station_name": "飯詰",
    "lines": [
      "JR奥羽本線(新庄～青森)"
    ],
    "lat": 39.406013,
    "lon": 140.515378,
    "pref": "秋田県",
    "city": "仙北郡美郷町"
  },
  {
    "station_name": "大曲",
    "lines": [
      "JR奥羽本線(新庄～青森)",
      "JR田沢湖線"
    ],
    "lat": 39.465712,
    "lon": 140.479628,
    "pref": "秋田県",
    "city": "大仙市"
  },
  {
    "station_name": "神宮寺",
    "lines": [
      "JR奥羽本線(新庄～青森)"
    ],
    "lat": 39.494841,
    "lon": 140.426518,
    "pref": "秋田県",
    "city": "大仙市"
  },
  {
    "station_name": "刈和野",
    "lines": [
      "JR奥羽本線(新庄～青森)"
    ],
    "lat": 39.547646,
    "lon": 140.372402,
    "pref": "秋田県",
    "city": "大仙市"
  },
  {
    "station_name": "峰吉川",
    "lines": [
      "JR奥羽本線(新庄～青森)"
    ],
    "lat": 39.566586,
    "lon": 140.32314,
    "pref": "秋田県",
    "city": "大仙市"
  },
  {
    "station_name": "羽後境",
    "lines": [
      "JR奥羽本線(新庄～青森)"
    ],
    "lat": 39.618679,
    "lon": 140.320722,
    "pref": "秋田県",
    "city": "大仙市"
  },
  {
    "station_name": "大張野",
    "lines": [
      "JR奥羽本線(新庄～青森)"
    ],
    "lat": 39.663347,
    "lon": 140.274071,
    "pref": "秋田県",
    "city": "秋田市"
  },
  {
    "station_name": "和田",
    "lines": [
      "JR奥羽本線(新庄～青森)"
    ],
    "lat": 39.65087,
    "lon": 140.218754,
    "pref": "秋田県",
    "city": "秋田市"
  },
  {
    "station_name": "四ツ小屋",
    "lines": [
      "JR奥羽本線(新庄～青森)"
    ],
    "lat": 39.661341,
    "lon": 140.144946,
    "pref": "秋田県",
    "city": "秋田市"
  },
  {
    "station_name": "秋田",
    "lines": [
      "JR奥羽本線(新庄～青森)",
      "JR羽越本線"
    ],
    "lat": 39.716748,
    "lon": 140.129931,
    "pref": "秋田県",
    "city": "秋田市"
  },
  {
    "station_name": "土崎",
    "lines": [
      "JR奥羽本線(新庄～青森)"
    ],
    "lat": 39.758453,
    "lon": 140.073601,
    "pref": "秋田県",
    "city": "秋田市"
  },
  {
    "station_name": "上飯島",
    "lines": [
      "JR奥羽本線(新庄～青森)"
    ],
    "lat": 39.779336,
    "lon": 140.06847,
    "pref": "秋田県",
    "city": "秋田市"
  },
  {
    "station_name": "追分",
    "lines": [
      "JR奥羽本線(新庄～青森)",
      "JR男鹿線"
    ],
    "lat": 39.809925,
    "lon": 140.05781,
    "pref": "秋田県",
    "city": "秋田市"
  },
  {
    "station_name": "大久保",
    "lines": [
      "JR奥羽本線(新庄～青森)"
    ],
    "lat": 39.87089,
    "lon": 140.063079,
    "pref": "秋田県",
    "city": "潟上市"
  },
  {
    "station_name": "羽後飯塚",
    "lines": [
      "JR奥羽本線(新庄～青森)"
    ],
    "lat": 39.898981,
    "lon": 140.0733,
    "pref": "秋田県",
    "city": "潟上市"
  },
  {
    "station_name": "井川さくら",
    "lines": [
      "JR奥羽本線(新庄～青森)"
    ],
    "lat": 39.911925,
    "lon": 140.076022,
    "pref": "秋田県",
    "city": "南秋田郡井川町"
  },
  {
    "station_name": "八郎潟",
    "lines": [
      "JR奥羽本線(新庄～青森)"
    ],
    "lat": 39.947366,
    "lon": 140.078382,
    "pref": "秋田県",
    "city": "南秋田郡八郎潟町"
  },
  {
    "station_name": "鯉川",
    "lines": [
      "JR奥羽本線(新庄～青森)"
    ],
    "lat": 39.996361,
    "lon": 140.077474,
    "pref": "秋田県",
    "city": "山本郡三種町"
  },
  {
    "station_name": "鹿渡",
    "lines": [
      "JR奥羽本線(新庄～青森)"
    ],
    "lat": 40.044619,
    "lon": 140.082621,
    "pref": "秋田県",
    "city": "山本郡三種町"
  },
  {
    "station_name": "森岳",
    "lines": [
      "JR奥羽本線(新庄～青森)"
    ],
    "lat": 40.103164,
    "lon": 140.070886,
    "pref": "秋田県",
    "city": "山本郡三種町"
  },
  {
    "station_name": "北金岡",
    "lines": [
      "JR奥羽本線(新庄～青森)"
    ],
    "lat": 40.141895,
    "lon": 140.063565,
    "pref": "秋田県",
    "city": "山本郡三種町"
  },
  {
    "station_name": "東能代",
    "lines": [
      "JR奥羽本線(新庄～青森)",
      "JR五能線"
    ],
    "lat": 40.191579,
    "lon": 140.065746,
    "pref": "秋田県",
    "city": "能代市"
  },
  {
    "station_name": "鶴形",
    "lines": [
      "JR奥羽本線(新庄～青森)"
    ],
    "lat": 40.203879,
    "lon": 140.118507,
    "pref": "秋田県",
    "city": "能代市"
  },
  {
    "station_name": "富根",
    "lines": [
      "JR奥羽本線(新庄～青森)"
    ],
    "lat": 40.217956,
    "lon": 140.172643,
    "pref": "秋田県",
    "city": "能代市"
  },
  {
    "station_name": "二ツ井",
    "lines": [
      "JR奥羽本線(新庄～青森)"
    ],
    "lat": 40.212506,
    "lon": 140.235729,
    "pref": "秋田県",
    "city": "能代市"
  },
  {
    "station_name": "前山",
    "lines": [
      "JR奥羽本線(新庄～青森)"
    ],
    "lat": 40.214785,
    "lon": 140.312378,
    "pref": "秋田県",
    "city": "北秋田市"
  },
  {
    "station_name": "鷹ノ巣",
    "lines": [
      "JR奥羽本線(新庄～青森)",
      "秋田内陸線"
    ],
    "lat": 40.232059,
    "lon": 140.369816,
    "pref": "秋田県",
    "city": "北秋田市"
  },
  {
    "station_name": "糠沢",
    "lines": [
      "JR奥羽本線(新庄～青森)"
    ],
    "lat": 40.251094,
    "lon": 140.397827,
    "pref": "秋田県",
    "city": "北秋田市"
  },
  {
    "station_name": "早口",
    "lines": [
      "JR奥羽本線(新庄～青森)"
    ],
    "lat": 40.271315,
    "lon": 140.447572,
    "pref": "秋田県",
    "city": "大館市"
  },
  {
    "station_name": "下川沿",
    "lines": [
      "JR奥羽本線(新庄～青森)"
    ],
    "lat": 40.276408,
    "lon": 140.496625,
    "pref": "秋田県",
    "city": "大館市"
  },
  {
    "station_name": "大館",
    "lines": [
      "JR奥羽本線(新庄～青森)",
      "十和田八幡平四季彩ライン"
    ],
    "lat": 40.288122,
    "lon": 140.555946,
    "pref": "秋田県",
    "city": "大館市"
  },
  {
    "station_name": "白沢",
    "lines": [
      "JR奥羽本線(新庄～青森)"
    ],
    "lat": 40.338103,
    "lon": 140.591657,
    "pref": "秋田県",
    "city": "大館市"
  },
  {
    "station_name": "陣場",
    "lines": [
      "JR奥羽本線(新庄～青森)"
    ],
    "lat": 40.398864,
    "lon": 140.607523,
    "pref": "秋田県",
    "city": "大館市"
  },
  {
    "station_name": "津軽湯の沢",
    "lines": [
      "JR奥羽本線(新庄～青森)"
    ],
    "lat": 40.441879,
    "lon": 140.632055,
    "pref": "青森県",
    "city": "平川市"
  },
  {
    "station_name": "碇ケ関",
    "lines": [
      "JR奥羽本線(新庄～青森)"
    ],
    "lat": 40.478988,
    "lon": 140.622443,
    "pref": "青森県",
    "city": "平川市"
  },
  {
    "station_name": "長峰",
    "lines": [
      "JR奥羽本線(新庄～青森)"
    ],
    "lat": 40.516072,
    "lon": 140.603069,
    "pref": "青森県",
    "city": "南津軽郡大鰐町"
  },
  {
    "station_name": "大鰐温泉",
    "lines": [
      "JR奥羽本線(新庄～青森)",
      "弘南鉄道大鰐線"
    ],
    "lat": 40.52154,
    "lon": 140.566914,
    "pref": "青森県",
    "city": "南津軽郡大鰐町"
  },
  {
    "station_name": "石川",
    "lines": [
      "JR奥羽本線(新庄～青森)"
    ],
    "lat": 40.556021,
    "lon": 140.530951,
    "pref": "青森県",
    "city": "弘前市"
  },
  {
    "station_name": "弘前",
    "lines": [
      "JR奥羽本線(新庄～青森)",
      "弘南鉄道弘南線"
    ],
    "lat": 40.599723,
    "lon": 140.485016,
    "pref": "青森県",
    "city": "弘前市"
  },
  {
    "station_name": "撫牛子",
    "lines": [
      "JR奥羽本線(新庄～青森)"
    ],
    "lat": 40.621298,
    "lon": 140.497616,
    "pref": "青森県",
    "city": "弘前市"
  },
  {
    "station_name": "川部",
    "lines": [
      "JR奥羽本線(新庄～青森)",
      "JR五能線"
    ],
    "lat": 40.646862,
    "lon": 140.521376,
    "pref": "青森県",
    "city": "南津軽郡田舎館村"
  },
  {
    "station_name": "北常盤",
    "lines": [
      "JR奥羽本線(新庄～青森)"
    ],
    "lat": 40.67053,
    "lon": 140.54359,
    "pref": "青森県",
    "city": "南津軽郡藤崎町"
  },
  {
    "station_name": "浪岡",
    "lines": [
      "JR奥羽本線(新庄～青森)"
    ],
    "lat": 40.71021,
    "lon": 140.580664,
    "pref": "青森県",
    "city": "青森市"
  },
  {
    "station_name": "大釈迦",
    "lines": [
      "JR奥羽本線(新庄～青森)"
    ],
    "lat": 40.756736,
    "lon": 140.587776,
    "pref": "青森県",
    "city": "青森市"
  },
  {
    "station_name": "鶴ケ坂",
    "lines": [
      "JR奥羽本線(新庄～青森)"
    ],
    "lat": 40.791228,
    "lon": 140.634878,
    "pref": "青森県",
    "city": "青森市"
  },
  {
    "station_name": "津軽新城",
    "lines": [
      "JR奥羽本線(新庄～青森)"
    ],
    "lat": 40.828022,
    "lon": 140.672025,
    "pref": "青森県",
    "city": "青森市"
  },
  {
    "station_name": "新青森",
    "lines": [
      "JR奥羽本線(新庄～青森)"
    ],
    "lat": 40.8275,
    "lon": 140.693472,
    "pref": "青森県",
    "city": "青森市"
  },
  {
    "station_name": "泉外旭川",
    "lines": [
      "JR奥羽本線(新庄～青森)"
    ],
    "lat": 39.73835,
    "lon": 140.112181,
    "pref": "秋田県",
    "city": "秋田市"
  },
  {
    "station_name": "北野辺地",
    "lines": [
      "はまなすベイライン大湊線"
    ],
    "lat": 40.871077,
    "lon": 141.134115,
    "pref": "青森県",
    "city": "上北郡野辺地町"
  },
  {
    "station_name": "有戸",
    "lines": [
      "はまなすベイライン大湊線"
    ],
    "lat": 40.913949,
    "lon": 141.189264,
    "pref": "青森県",
    "city": "上北郡野辺地町"
  },
  {
    "station_name": "吹越",
    "lines": [
      "はまなすベイライン大湊線"
    ],
    "lat": 41.022038,
    "lon": 141.246552,
    "pref": "青森県",
    "city": "上北郡横浜町"
  },
  {
    "station_name": "陸奥横浜",
    "lines": [
      "はまなすベイライン大湊線"
    ],
    "lat": 41.086544,
    "lon": 141.249757,
    "pref": "青森県",
    "city": "上北郡横浜町"
  },
  {
    "station_name": "有畑",
    "lines": [
      "はまなすベイライン大湊線"
    ],
    "lat": 41.131818,
    "lon": 141.276421,
    "pref": "青森県",
    "city": "上北郡横浜町"
  },
  {
    "station_name": "近川",
    "lines": [
      "はまなすベイライン大湊線"
    ],
    "lat": 41.191687,
    "lon": 141.279021,
    "pref": "青森県",
    "city": "むつ市"
  },
  {
    "station_name": "金谷沢",
    "lines": [
      "はまなすベイライン大湊線"
    ],
    "lat": 41.228854,
    "lon": 141.248432,
    "pref": "青森県",
    "city": "むつ市"
  },
  {
    "station_name": "赤川",
    "lines": [
      "はまなすベイライン大湊線"
    ],
    "lat": 41.267829,
    "lon": 141.209339,
    "pref": "青森県",
    "city": "むつ市"
  },
  {
    "station_name": "下北",
    "lines": [
      "はまなすベイライン大湊線"
    ],
    "lat": 41.28288,
    "lon": 141.18989,
    "pref": "青森県",
    "city": "むつ市"
  },
  {
    "station_name": "大湊",
    "lines": [
      "はまなすベイライン大湊線"
    ],
    "lat": 41.280344,
    "lon": 141.161772,
    "pref": "青森県",
    "city": "むつ市"
  },
  {
    "station_name": "能代",
    "lines": [
      "JR五能線"
    ],
    "lat": 40.206577,
    "lon": 140.033084,
    "pref": "秋田県",
    "city": "能代市"
  },
  {
    "station_name": "向能代",
    "lines": [
      "JR五能線"
    ],
    "lat": 40.225669,
    "lon": 140.039111,
    "pref": "秋田県",
    "city": "能代市"
  },
  {
    "station_name": "北能代",
    "lines": [
      "JR五能線"
    ],
    "lat": 40.254138,
    "lon": 140.033835,
    "pref": "秋田県",
    "city": "能代市"
  },
  {
    "station_name": "鳥形",
    "lines": [
      "JR五能線"
    ],
    "lat": 40.271433,
    "lon": 140.036931,
    "pref": "秋田県",
    "city": "能代市"
  },
  {
    "station_name": "沢目",
    "lines": [
      "JR五能線"
    ],
    "lat": 40.295929,
    "lon": 140.037824,
    "pref": "秋田県",
    "city": "山本郡八峰町"
  },
  {
    "station_name": "東八森",
    "lines": [
      "JR五能線"
    ],
    "lat": 40.332086,
    "lon": 140.032462,
    "pref": "秋田県",
    "city": "山本郡八峰町"
  },
  {
    "station_name": "八森",
    "lines": [
      "JR五能線"
    ],
    "lat": 40.37135,
    "lon": 140.017882,
    "pref": "秋田県",
    "city": "山本郡八峰町"
  },
  {
    "station_name": "滝ノ間",
    "lines": [
      "JR五能線"
    ],
    "lat": 40.379967,
    "lon": 140.00221,
    "pref": "秋田県",
    "city": "山本郡八峰町"
  },
  {
    "station_name": "あきた白神",
    "lines": [
      "JR五能線"
    ],
    "lat": 40.386583,
    "lon": 139.987793,
    "pref": "秋田県",
    "city": "山本郡八峰町"
  },
  {
    "station_name": "岩館",
    "lines": [
      "JR五能線"
    ],
    "lat": 40.406241,
    "lon": 139.966258,
    "pref": "秋田県",
    "city": "山本郡八峰町"
  },
  {
    "station_name": "大間越",
    "lines": [
      "JR五能線"
    ],
    "lat": 40.492407,
    "lon": 139.950062,
    "pref": "青森県",
    "city": "西津軽郡深浦町"
  },
  {
    "station_name": "白神岳登山口",
    "lines": [
      "JR五能線"
    ],
    "lat": 40.513551,
    "lon": 139.950318,
    "pref": "青森県",
    "city": "西津軽郡深浦町"
  },
  {
    "station_name": "松神",
    "lines": [
      "JR五能線"
    ],
    "lat": 40.534902,
    "lon": 139.946556,
    "pref": "青森県",
    "city": "西津軽郡深浦町"
  },
  {
    "station_name": "十二湖",
    "lines": [
      "JR五能線"
    ],
    "lat": 40.551539,
    "lon": 139.941986,
    "pref": "青森県",
    "city": "西津軽郡深浦町"
  },
  {
    "station_name": "陸奥岩崎",
    "lines": [
      "JR五能線"
    ],
    "lat": 40.583333,
    "lon": 139.924183,
    "pref": "青森県",
    "city": "西津軽郡深浦町"
  },
  {
    "station_name": "陸奥沢辺",
    "lines": [
      "JR五能線"
    ],
    "lat": 40.586175,
    "lon": 139.894991,
    "pref": "青森県",
    "city": "西津軽郡深浦町"
  },
  {
    "station_name": "ウェスパ椿山",
    "lines": [
      "JR五能線"
    ],
    "lat": 40.592913,
    "lon": 139.871157,
    "pref": "青森県",
    "city": "西津軽郡深浦町"
  },
  {
    "station_name": "艫作",
    "lines": [
      "JR五能線"
    ],
    "lat": 40.608534,
    "lon": 139.864856,
    "pref": "青森県",
    "city": "西津軽郡深浦町"
  },
  {
    "station_name": "横磯",
    "lines": [
      "JR五能線"
    ],
    "lat": 40.629891,
    "lon": 139.89091,
    "pref": "青森県",
    "city": "西津軽郡深浦町"
  },
  {
    "station_name": "深浦",
    "lines": [
      "JR五能線"
    ],
    "lat": 40.650239,
    "lon": 139.929372,
    "pref": "青森県",
    "city": "西津軽郡深浦町"
  },
  {
    "station_name": "広戸",
    "lines": [
      "JR五能線"
    ],
    "lat": 40.67434,
    "lon": 139.955586,
    "pref": "青森県",
    "city": "西津軽郡深浦町"
  },
  {
    "station_name": "追良瀬",
    "lines": [
      "JR五能線"
    ],
    "lat": 40.686114,
    "lon": 139.970298,
    "pref": "青森県",
    "city": "西津軽郡深浦町"
  },
  {
    "station_name": "驫木",
    "lines": [
      "JR五能線"
    ],
    "lat": 40.707218,
    "lon": 139.982954,
    "pref": "青森県",
    "city": "西津軽郡深浦町"
  },
  {
    "station_name": "風合瀬",
    "lines": [
      "JR五能線"
    ],
    "lat": 40.731826,
    "lon": 139.99432,
    "pref": "青森県",
    "city": "西津軽郡深浦町"
  },
  {
    "station_name": "大戸瀬",
    "lines": [
      "JR五能線"
    ],
    "lat": 40.759325,
    "lon": 140.033596,
    "pref": "青森県",
    "city": "西津軽郡深浦町"
  },
  {
    "station_name": "千畳敷",
    "lines": [
      "JR五能線"
    ],
    "lat": 40.767769,
    "lon": 140.054832,
    "pref": "青森県",
    "city": "西津軽郡深浦町"
  },
  {
    "station_name": "北金ケ沢",
    "lines": [
      "JR五能線"
    ],
    "lat": 40.745995,
    "lon": 140.095052,
    "pref": "青森県",
    "city": "西津軽郡深浦町"
  },
  {
    "station_name": "陸奥柳田",
    "lines": [
      "JR五能線"
    ],
    "lat": 40.740616,
    "lon": 140.123243,
    "pref": "青森県",
    "city": "西津軽郡深浦町"
  },
  {
    "station_name": "陸奥赤石",
    "lines": [
      "JR五能線"
    ],
    "lat": 40.76156,
    "lon": 140.162057,
    "pref": "青森県",
    "city": "西津軽郡鰺ヶ沢町"
  },
  {
    "station_name": "鰺ケ沢",
    "lines": [
      "JR五能線"
    ],
    "lat": 40.775255,
    "lon": 140.220589,
    "pref": "青森県",
    "city": "西津軽郡鰺ヶ沢町"
  },
  {
    "station_name": "鳴沢",
    "lines": [
      "JR五能線"
    ],
    "lat": 40.782189,
    "lon": 140.267617,
    "pref": "青森県",
    "city": "西津軽郡鰺ヶ沢町"
  },
  {
    "station_name": "越水",
    "lines": [
      "JR五能線"
    ],
    "lat": 40.787258,
    "lon": 140.298628,
    "pref": "青森県",
    "city": "つがる市"
  },
  {
    "station_name": "陸奥森田",
    "lines": [
      "JR五能線"
    ],
    "lat": 40.781738,
    "lon": 140.339033,
    "pref": "青森県",
    "city": "つがる市"
  },
  {
    "station_name": "中田",
    "lines": [
      "JR五能線"
    ],
    "lat": 40.787424,
    "lon": 140.364505,
    "pref": "青森県",
    "city": "つがる市"
  },
  {
    "station_name": "木造",
    "lines": [
      "JR五能線"
    ],
    "lat": 40.802482,
    "lon": 140.387775,
    "pref": "青森県",
    "city": "つがる市"
  },
  {
    "station_name": "五所川原",
    "lines": [
      "JR五能線",
      "津軽鉄道線"
    ],
    "lat": 40.809124,
    "lon": 140.44776,
    "pref": "青森県",
    "city": "五所川原市"
  },
  {
    "station_name": "陸奥鶴田",
    "lines": [
      "JR五能線"
    ],
    "lat": 40.757544,
    "lon": 140.435276,
    "pref": "青森県",
    "city": "北津軽郡鶴田町"
  },
  {
    "station_name": "鶴泊",
    "lines": [
      "JR五能線"
    ],
    "lat": 40.736026,
    "lon": 140.437616,
    "pref": "青森県",
    "city": "北津軽郡鶴田町"
  },
  {
    "station_name": "板柳",
    "lines": [
      "JR五能線"
    ],
    "lat": 40.69726,
    "lon": 140.461785,
    "pref": "青森県",
    "city": "北津軽郡板柳町"
  },
  {
    "station_name": "林崎",
    "lines": [
      "JR五能線"
    ],
    "lat": 40.675355,
    "lon": 140.480401,
    "pref": "青森県",
    "city": "南津軽郡藤崎町"
  },
  {
    "station_name": "藤崎",
    "lines": [
      "JR五能線"
    ],
    "lat": 40.654047,
    "lon": 140.499531,
    "pref": "青森県",
    "city": "南津軽郡藤崎町"
  },
  {
    "station_name": "油川",
    "lines": [
      "JR津軽線"
    ],
    "lat": 40.857035,
    "lon": 140.690476,
    "pref": "青森県",
    "city": "青森市"
  },
  {
    "station_name": "津軽宮田",
    "lines": [
      "JR津軽線"
    ],
    "lat": 40.887184,
    "lon": 140.674579,
    "pref": "青森県",
    "city": "青森市"
  },
  {
    "station_name": "奥内",
    "lines": [
      "JR津軽線"
    ],
    "lat": 40.903044,
    "lon": 140.672382,
    "pref": "青森県",
    "city": "青森市"
  },
  {
    "station_name": "左堰",
    "lines": [
      "JR津軽線"
    ],
    "lat": 40.917214,
    "lon": 140.665929,
    "pref": "青森県",
    "city": "青森市"
  },
  {
    "station_name": "後潟",
    "lines": [
      "JR津軽線"
    ],
    "lat": 40.931519,
    "lon": 140.662734,
    "pref": "青森県",
    "city": "青森市"
  },
  {
    "station_name": "中沢",
    "lines": [
      "JR津軽線"
    ],
    "lat": 40.949044,
    "lon": 140.656244,
    "pref": "青森県",
    "city": "青森市"
  },
  {
    "station_name": "蓬田",
    "lines": [
      "JR津軽線"
    ],
    "lat": 40.969042,
    "lon": 140.654533,
    "pref": "青森県",
    "city": "東津軽郡蓬田村"
  },
  {
    "station_name": "郷沢",
    "lines": [
      "JR津軽線"
    ],
    "lat": 40.987682,
    "lon": 140.652399,
    "pref": "青森県",
    "city": "東津軽郡蓬田村"
  },
  {
    "station_name": "瀬辺地",
    "lines": [
      "JR津軽線"
    ],
    "lat": 41.007869,
    "lon": 140.648179,
    "pref": "青森県",
    "city": "東津軽郡蓬田村"
  },
  {
    "station_name": "蟹田",
    "lines": [
      "JR津軽線"
    ],
    "lat": 41.038274,
    "lon": 140.642565,
    "pref": "青森県",
    "city": "東津軽郡外ヶ浜町"
  },
  {
    "station_name": "大平",
    "lines": [
      "JR津軽線"
    ],
    "lat": 41.065866,
    "lon": 140.559375,
    "pref": "青森県",
    "city": "東津軽郡外ヶ浜町"
  },
  {
    "station_name": "大川平",
    "lines": [
      "JR津軽線"
    ],
    "lat": 41.163204,
    "lon": 140.507592,
    "pref": "青森県",
    "city": "東津軽郡今別町"
  },
  {
    "station_name": "今別",
    "lines": [
      "JR津軽線"
    ],
    "lat": 41.179741,
    "lon": 140.490448,
    "pref": "青森県",
    "city": "東津軽郡今別町"
  },
  {
    "station_name": "津軽浜名",
    "lines": [
      "JR津軽線"
    ],
    "lat": 41.180521,
    "lon": 140.47185,
    "pref": "青森県",
    "city": "東津軽郡今別町"
  },
  {
    "station_name": "三厩",
    "lines": [
      "JR津軽線"
    ],
    "lat": 41.185404,
    "lon": 140.444482,
    "pref": "青森県",
    "city": "東津軽郡外ヶ浜町"
  },
  {
    "station_name": "八戸",
    "lines": [
      "JR八戸線",
      "青い森鉄道線"
    ],
    "lat": 40.5092,
    "lon": 141.431499,
    "pref": "青森県",
    "city": "八戸市"
  },
  {
    "station_name": "長苗代",
    "lines": [
      "JR八戸線"
    ],
    "lat": 40.52146,
    "lon": 141.465907,
    "pref": "青森県",
    "city": "八戸市"
  },
  {
    "station_name": "本八戸",
    "lines": [
      "JR八戸線"
    ],
    "lat": 40.516286,
    "lon": 141.488762,
    "pref": "青森県",
    "city": "八戸市"
  },
  {
    "station_name": "小中野",
    "lines": [
      "JR八戸線"
    ],
    "lat": 40.518767,
    "lon": 141.510032,
    "pref": "青森県",
    "city": "八戸市"
  },
  {
    "station_name": "陸奥湊",
    "lines": [
      "JR八戸線"
    ],
    "lat": 40.52335,
    "lon": 141.527652,
    "pref": "青森県",
    "city": "八戸市"
  },
  {
    "station_name": "白銀",
    "lines": [
      "JR八戸線"
    ],
    "lat": 40.522031,
    "lon": 141.541648,
    "pref": "青森県",
    "city": "八戸市"
  },
  {
    "station_name": "鮫",
    "lines": [
      "JR八戸線"
    ],
    "lat": 40.530244,
    "lon": 141.554891,
    "pref": "青森県",
    "city": "八戸市"
  },
  {
    "station_name": "陸奥白浜",
    "lines": [
      "JR八戸線"
    ],
    "lat": 40.516636,
    "lon": 141.592299,
    "pref": "青森県",
    "city": "八戸市"
  },
  {
    "station_name": "種差海岸",
    "lines": [
      "JR八戸線"
    ],
    "lat": 40.506951,
    "lon": 141.607367,
    "pref": "青森県",
    "city": "八戸市"
  },
  {
    "station_name": "大久喜",
    "lines": [
      "JR八戸線"
    ],
    "lat": 40.495135,
    "lon": 141.622958,
    "pref": "青森県",
    "city": "八戸市"
  },
  {
    "station_name": "金浜",
    "lines": [
      "JR八戸線"
    ],
    "lat": 40.475994,
    "lon": 141.637366,
    "pref": "青森県",
    "city": "八戸市"
  },
  {
    "station_name": "大蛇",
    "lines": [
      "JR八戸線"
    ],
    "lat": 40.467251,
    "lon": 141.650773,
    "pref": "青森県",
    "city": "三戸郡階上町"
  },
  {
    "station_name": "階上",
    "lines": [
      "JR八戸線"
    ],
    "lat": 40.456834,
    "lon": 141.664958,
    "pref": "青森県",
    "city": "三戸郡階上町"
  },
  {
    "station_name": "角の浜",
    "lines": [
      "JR八戸線"
    ],
    "lat": 40.444478,
    "lon": 141.681773,
    "pref": "岩手県",
    "city": "九戸郡洋野町"
  },
  {
    "station_name": "平内",
    "lines": [
      "JR八戸線"
    ],
    "lat": 40.42552,
    "lon": 141.699272,
    "pref": "岩手県",
    "city": "九戸郡洋野町"
  },
  {
    "station_name": "種市",
    "lines": [
      "JR八戸線"
    ],
    "lat": 40.410384,
    "lon": 141.715232,
    "pref": "岩手県",
    "city": "九戸郡洋野町"
  },
  {
    "station_name": "玉川",
    "lines": [
      "JR八戸線"
    ],
    "lat": 40.380424,
    "lon": 141.735117,
    "pref": "岩手県",
    "city": "九戸郡洋野町"
  },
  {
    "station_name": "宿戸",
    "lines": [
      "JR八戸線"
    ],
    "lat": 40.366129,
    "lon": 141.746683,
    "pref": "岩手県",
    "city": "九戸郡洋野町"
  },
  {
    "station_name": "陸中八木",
    "lines": [
      "JR八戸線"
    ],
    "lat": 40.345485,
    "lon": 141.766517,
    "pref": "岩手県",
    "city": "九戸郡洋野町"
  },
  {
    "station_name": "有家",
    "lines": [
      "JR八戸線"
    ],
    "lat": 40.324007,
    "lon": 141.773031,
    "pref": "岩手県",
    "city": "九戸郡洋野町"
  },
  {
    "station_name": "陸中中野",
    "lines": [
      "JR八戸線"
    ],
    "lat": 40.305165,
    "lon": 141.787768,
    "pref": "岩手県",
    "city": "九戸郡洋野町"
  },
  {
    "station_name": "侍浜",
    "lines": [
      "JR八戸線"
    ],
    "lat": 40.261375,
    "lon": 141.760575,
    "pref": "岩手県",
    "city": "久慈市"
  },
  {
    "station_name": "陸中夏井",
    "lines": [
      "JR八戸線"
    ],
    "lat": 40.207747,
    "lon": 141.791906,
    "pref": "岩手県",
    "city": "久慈市"
  },
  {
    "station_name": "久慈",
    "lines": [
      "JR八戸線",
      "三陸鉄道リアス線"
    ],
    "lat": 40.190391,
    "lon": 141.770891,
    "pref": "岩手県",
    "city": "久慈市"
  },
  {
    "station_name": "茂市",
    "lines": [
      "JR山田線"
    ],
    "lat": 39.620619,
    "lon": 141.799288,
    "pref": "岩手県",
    "city": "宮古市"
  },
  {
    "station_name": "真滝",
    "lines": [
      "ドラゴンレール大船渡線"
    ],
    "lat": 38.908239,
    "lon": 141.17793,
    "pref": "岩手県",
    "city": "一関市"
  },
  {
    "station_name": "陸中門崎",
    "lines": [
      "ドラゴンレール大船渡線"
    ],
    "lat": 38.916908,
    "lon": 141.251226,
    "pref": "岩手県",
    "city": "一関市"
  },
  {
    "station_name": "岩ノ下",
    "lines": [
      "ドラゴンレール大船渡線"
    ],
    "lat": 38.947699,
    "lon": 141.245342,
    "pref": "岩手県",
    "city": "一関市"
  },
  {
    "station_name": "陸中松川",
    "lines": [
      "ドラゴンレール大船渡線"
    ],
    "lat": 38.977237,
    "lon": 141.238046,
    "pref": "岩手県",
    "city": "一関市"
  },
  {
    "station_name": "猊鼻渓",
    "lines": [
      "ドラゴンレール大船渡線"
    ],
    "lat": 38.988939,
    "lon": 141.25327,
    "pref": "岩手県",
    "city": "一関市"
  },
  {
    "station_name": "柴宿",
    "lines": [
      "ドラゴンレール大船渡線"
    ],
    "lat": 38.996719,
    "lon": 141.272312,
    "pref": "岩手県",
    "city": "一関市"
  },
  {
    "station_name": "摺沢",
    "lines": [
      "ドラゴンレール大船渡線"
    ],
    "lat": 38.99593,
    "lon": 141.32146,
    "pref": "岩手県",
    "city": "一関市"
  },
  {
    "station_name": "千厩",
    "lines": [
      "ドラゴンレール大船渡線"
    ],
    "lat": 38.924873,
    "lon": 141.34563,
    "pref": "岩手県",
    "city": "一関市"
  },
  {
    "station_name": "小梨",
    "lines": [
      "ドラゴンレール大船渡線"
    ],
    "lat": 38.932493,
    "lon": 141.38418,
    "pref": "岩手県",
    "city": "一関市"
  },
  {
    "station_name": "矢越",
    "lines": [
      "ドラゴンレール大船渡線"
    ],
    "lat": 38.935224,
    "lon": 141.429029,
    "pref": "岩手県",
    "city": "一関市"
  },
  {
    "station_name": "折壁",
    "lines": [
      "ドラゴンレール大船渡線"
    ],
    "lat": 38.939428,
    "lon": 141.452346,
    "pref": "岩手県",
    "city": "一関市"
  },
  {
    "station_name": "新月",
    "lines": [
      "ドラゴンレール大船渡線"
    ],
    "lat": 38.915598,
    "lon": 141.488796,
    "pref": "岩手県",
    "city": "一関市"
  },
  {
    "station_name": "気仙沼",
    "lines": [
      "ドラゴンレール大船渡線"
    ],
    "lat": 38.910031,
    "lon": 141.558893,
    "pref": "宮城県",
    "city": "気仙沼市"
  },
  {
    "station_name": "盛",
    "lines": [
      "三陸鉄道リアス線"
    ],
    "lat": 39.086372,
    "lon": 141.710734,
    "pref": "岩手県",
    "city": "大船渡市"
  },
  {
    "station_name": "似内",
    "lines": [
      "銀河ドリームライン釜石線"
    ],
    "lat": 39.406819,
    "lon": 141.140889,
    "pref": "岩手県",
    "city": "花巻市"
  },
  {
    "station_name": "新花巻",
    "lines": [
      "銀河ドリームライン釜石線"
    ],
    "lat": 39.405839,
    "lon": 141.17302,
    "pref": "岩手県",
    "city": "花巻市"
  },
  {
    "station_name": "小山田",
    "lines": [
      "銀河ドリームライン釜石線"
    ],
    "lat": 39.4086,
    "lon": 141.193999,
    "pref": "岩手県",
    "city": "花巻市"
  },
  {
    "station_name": "土沢",
    "lines": [
      "銀河ドリームライン釜石線"
    ],
    "lat": 39.383381,
    "lon": 141.232488,
    "pref": "岩手県",
    "city": "花巻市"
  },
  {
    "station_name": "晴山",
    "lines": [
      "銀河ドリームライン釜石線"
    ],
    "lat": 39.366617,
    "lon": 141.257892,
    "pref": "岩手県",
    "city": "花巻市"
  },
  {
    "station_name": "岩根橋",
    "lines": [
      "銀河ドリームライン釜石線"
    ],
    "lat": 39.355264,
    "lon": 141.318795,
    "pref": "岩手県",
    "city": "遠野市"
  },
  {
    "station_name": "宮守",
    "lines": [
      "銀河ドリームライン釜石線"
    ],
    "lat": 39.351066,
    "lon": 141.350271,
    "pref": "岩手県",
    "city": "遠野市"
  },
  {
    "station_name": "柏木平",
    "lines": [
      "銀河ドリームライン釜石線"
    ],
    "lat": 39.30606,
    "lon": 141.379862,
    "pref": "岩手県",
    "city": "遠野市"
  },
  {
    "station_name": "鱒沢",
    "lines": [
      "銀河ドリームライン釜石線"
    ],
    "lat": 39.300158,
    "lon": 141.399252,
    "pref": "岩手県",
    "city": "遠野市"
  },
  {
    "station_name": "荒谷前",
    "lines": [
      "銀河ドリームライン釜石線"
    ],
    "lat": 39.309928,
    "lon": 141.428507,
    "pref": "岩手県",
    "city": "遠野市"
  },
  {
    "station_name": "岩手二日町",
    "lines": [
      "銀河ドリームライン釜石線"
    ],
    "lat": 39.323441,
    "lon": 141.45606,
    "pref": "岩手県",
    "city": "遠野市"
  },
  {
    "station_name": "綾織",
    "lines": [
      "銀河ドリームライン釜石線"
    ],
    "lat": 39.328422,
    "lon": 141.476845,
    "pref": "岩手県",
    "city": "遠野市"
  },
  {
    "station_name": "遠野",
    "lines": [
      "銀河ドリームライン釜石線"
    ],
    "lat": 39.332529,
    "lon": 141.53072,
    "pref": "岩手県",
    "city": "遠野市"
  },
  {
    "station_name": "青笹",
    "lines": [
      "銀河ドリームライン釜石線"
    ],
    "lat": 39.311482,
    "lon": 141.568957,
    "pref": "岩手県",
    "city": "遠野市"
  },
  {
    "station_name": "岩手上郷",
    "lines": [
      "銀河ドリームライン釜石線"
    ],
    "lat": 39.284658,
    "lon": 141.585834,
    "pref": "岩手県",
    "city": "遠野市"
  },
  {
    "station_name": "平倉",
    "lines": [
      "銀河ドリームライン釜石線"
    ],
    "lat": 39.264682,
    "lon": 141.595661,
    "pref": "岩手県",
    "city": "遠野市"
  },
  {
    "station_name": "足ケ瀬",
    "lines": [
      "銀河ドリームライン釜石線"
    ],
    "lat": 39.254766,
    "lon": 141.645807,
    "pref": "岩手県",
    "city": "遠野市"
  },
  {
    "station_name": "上有住",
    "lines": [
      "銀河ドリームライン釜石線"
    ],
    "lat": 39.242013,
    "lon": 141.681522,
    "pref": "岩手県",
    "city": "気仙郡住田町"
  },
  {
    "station_name": "陸中大橋",
    "lines": [
      "銀河ドリームライン釜石線"
    ],
    "lat": 39.280451,
    "lon": 141.718436,
    "pref": "岩手県",
    "city": "釜石市"
  },
  {
    "station_name": "洞泉",
    "lines": [
      "銀河ドリームライン釜石線"
    ],
    "lat": 39.250671,
    "lon": 141.760388,
    "pref": "岩手県",
    "city": "釜石市"
  },
  {
    "station_name": "松倉",
    "lines": [
      "銀河ドリームライン釜石線"
    ],
    "lat": 39.256458,
    "lon": 141.801484,
    "pref": "岩手県",
    "city": "釜石市"
  },
  {
    "station_name": "小佐野",
    "lines": [
      "銀河ドリームライン釜石線"
    ],
    "lat": 39.264464,
    "lon": 141.836515,
    "pref": "岩手県",
    "city": "釜石市"
  },
  {
    "station_name": "釜石",
    "lines": [
      "銀河ドリームライン釜石線",
      "三陸鉄道リアス線"
    ],
    "lat": 39.273321,
    "lon": 141.87267,
    "pref": "岩手県",
    "city": "釜石市"
  },
  {
    "station_name": "柳原",
    "lines": [
      "JR北上線"
    ],
    "lat": 39.294597,
    "lon": 141.111671,
    "pref": "岩手県",
    "city": "北上市"
  },
  {
    "station_name": "江釣子",
    "lines": [
      "JR北上線"
    ],
    "lat": 39.298349,
    "lon": 141.075749,
    "pref": "岩手県",
    "city": "北上市"
  },
  {
    "station_name": "藤根",
    "lines": [
      "JR北上線"
    ],
    "lat": 39.301064,
    "lon": 141.039571,
    "pref": "岩手県",
    "city": "北上市"
  },
  {
    "station_name": "立川目",
    "lines": [
      "JR北上線"
    ],
    "lat": 39.307876,
    "lon": 140.997144,
    "pref": "岩手県",
    "city": "北上市"
  },
  {
    "station_name": "横川目",
    "lines": [
      "JR北上線"
    ],
    "lat": 39.309255,
    "lon": 140.972143,
    "pref": "岩手県",
    "city": "北上市"
  },
  {
    "station_name": "岩沢",
    "lines": [
      "JR北上線"
    ],
    "lat": 39.301016,
    "lon": 140.931616,
    "pref": "岩手県",
    "city": "北上市"
  },
  {
    "station_name": "和賀仙人",
    "lines": [
      "JR北上線"
    ],
    "lat": 39.308523,
    "lon": 140.909485,
    "pref": "岩手県",
    "city": "北上市"
  },
  {
    "station_name": "ゆだ錦秋湖",
    "lines": [
      "JR北上線"
    ],
    "lat": 39.295513,
    "lon": 140.835343,
    "pref": "岩手県",
    "city": "和賀郡西和賀町"
  },
  {
    "station_name": "ほっとゆだ",
    "lines": [
      "JR北上線"
    ],
    "lat": 39.314493,
    "lon": 140.775647,
    "pref": "岩手県",
    "city": "和賀郡西和賀町"
  },
  {
    "station_name": "ゆだ高原",
    "lines": [
      "JR北上線"
    ],
    "lat": 39.301074,
    "lon": 140.737205,
    "pref": "岩手県",
    "city": "和賀郡西和賀町"
  },
  {
    "station_name": "黒沢",
    "lines": [
      "JR北上線"
    ],
    "lat": 39.276243,
    "lon": 140.699619,
    "pref": "秋田県",
    "city": "横手市"
  },
  {
    "station_name": "小松川",
    "lines": [
      "JR北上線"
    ],
    "lat": 39.293403,
    "lon": 140.646094,
    "pref": "秋田県",
    "city": "横手市"
  },
  {
    "station_name": "相野々",
    "lines": [
      "JR北上線"
    ],
    "lat": 39.27805,
    "lon": 140.619067,
    "pref": "秋田県",
    "city": "横手市"
  },
  {
    "station_name": "大釜",
    "lines": [
      "JR田沢湖線"
    ],
    "lat": 39.711586,
    "lon": 141.072202,
    "pref": "岩手県",
    "city": "滝沢市"
  },
  {
    "station_name": "小岩井",
    "lines": [
      "JR田沢湖線"
    ],
    "lat": 39.709731,
    "lon": 141.02465,
    "pref": "岩手県",
    "city": "滝沢市"
  },
  {
    "station_name": "雫石",
    "lines": [
      "JR田沢湖線"
    ],
    "lat": 39.689244,
    "lon": 140.974762,
    "pref": "岩手県",
    "city": "岩手郡雫石町"
  },
  {
    "station_name": "春木場",
    "lines": [
      "JR田沢湖線"
    ],
    "lat": 39.693396,
    "lon": 140.943954,
    "pref": "岩手県",
    "city": "岩手郡雫石町"
  },
  {
    "station_name": "赤渕",
    "lines": [
      "JR田沢湖線"
    ],
    "lat": 39.685112,
    "lon": 140.907222,
    "pref": "岩手県",
    "city": "岩手郡雫石町"
  },
  {
    "station_name": "田沢湖",
    "lines": [
      "JR田沢湖線"
    ],
    "lat": 39.700363,
    "lon": 140.722139,
    "pref": "秋田県",
    "city": "仙北市"
  },
  {
    "station_name": "刺巻",
    "lines": [
      "JR田沢湖線"
    ],
    "lat": 39.668563,
    "lon": 140.69196,
    "pref": "秋田県",
    "city": "仙北市"
  },
  {
    "station_name": "神代",
    "lines": [
      "JR田沢湖線"
    ],
    "lat": 39.622667,
    "lon": 140.627358,
    "pref": "秋田県",
    "city": "仙北市"
  },
  {
    "station_name": "生田",
    "lines": [
      "JR田沢湖線"
    ],
    "lat": 39.612065,
    "lon": 140.601203,
    "pref": "秋田県",
    "city": "仙北市"
  },
  {
    "station_name": "角館",
    "lines": [
      "JR田沢湖線",
      "秋田内陸線"
    ],
    "lat": 39.591716,
    "lon": 140.570988,
    "pref": "秋田県",
    "city": "仙北市"
  },
  {
    "station_name": "鶯野",
    "lines": [
      "JR田沢湖線"
    ],
    "lat": 39.568536,
    "lon": 140.557901,
    "pref": "秋田県",
    "city": "大仙市"
  },
  {
    "station_name": "羽後長野",
    "lines": [
      "JR田沢湖線"
    ],
    "lat": 39.546003,
    "lon": 140.540448,
    "pref": "秋田県",
    "city": "大仙市"
  },
  {
    "station_name": "鑓見内",
    "lines": [
      "JR田沢湖線"
    ],
    "lat": 39.519323,
    "lon": 140.527744,
    "pref": "秋田県",
    "city": "大仙市"
  },
  {
    "station_name": "羽後四ツ屋",
    "lines": [
      "JR田沢湖線"
    ],
    "lat": 39.501511,
    "lon": 140.511886,
    "pref": "秋田県",
    "city": "大仙市"
  },
  {
    "station_name": "北大曲",
    "lines": [
      "JR田沢湖線"
    ],
    "lat": 39.48944,
    "lon": 140.497966,
    "pref": "秋田県",
    "city": "大仙市"
  },
  {
    "station_name": "前潟",
    "lines": [
      "JR田沢湖線"
    ],
    "lat": 39.713028,
    "lon": 141.101,
    "pref": "岩手県",
    "city": "盛岡市"
  },
  {
    "station_name": "好摩",
    "lines": [
      "十和田八幡平四季彩ライン",
      "いわて銀河鉄道線"
    ],
    "lat": 39.874037,
    "lon": 141.173685,
    "pref": "岩手県",
    "city": "盛岡市"
  },
  {
    "station_name": "東大更",
    "lines": [
      "十和田八幡平四季彩ライン"
    ],
    "lat": 39.902621,
    "lon": 141.142537,
    "pref": "岩手県",
    "city": "八幡平市"
  },
  {
    "station_name": "大更",
    "lines": [
      "十和田八幡平四季彩ライン"
    ],
    "lat": 39.913746,
    "lon": 141.100808,
    "pref": "岩手県",
    "city": "八幡平市"
  },
  {
    "station_name": "平館",
    "lines": [
      "十和田八幡平四季彩ライン"
    ],
    "lat": 39.950886,
    "lon": 141.08531,
    "pref": "岩手県",
    "city": "八幡平市"
  },
  {
    "station_name": "北森",
    "lines": [
      "十和田八幡平四季彩ライン"
    ],
    "lat": 39.956694,
    "lon": 141.071889,
    "pref": "岩手県",
    "city": "八幡平市"
  },
  {
    "station_name": "松尾八幡平",
    "lines": [
      "十和田八幡平四季彩ライン"
    ],
    "lat": 39.969241,
    "lon": 141.043903,
    "pref": "岩手県",
    "city": "八幡平市"
  },
  {
    "station_name": "安比高原",
    "lines": [
      "十和田八幡平四季彩ライン"
    ],
    "lat": 40.012587,
    "lon": 140.997239,
    "pref": "岩手県",
    "city": "八幡平市"
  },
  {
    "station_name": "赤坂田",
    "lines": [
      "十和田八幡平四季彩ライン"
    ],
    "lat": 40.048464,
    "lon": 141.00394,
    "pref": "岩手県",
    "city": "八幡平市"
  },
  {
    "station_name": "小屋の畑",
    "lines": [
      "十和田八幡平四季彩ライン"
    ],
    "lat": 40.076539,
    "lon": 141.020673,
    "pref": "岩手県",
    "city": "八幡平市"
  },
  {
    "station_name": "荒屋新町",
    "lines": [
      "十和田八幡平四季彩ライン"
    ],
    "lat": 40.097682,
    "lon": 141.049196,
    "pref": "岩手県",
    "city": "八幡平市"
  },
  {
    "station_name": "横間",
    "lines": [
      "十和田八幡平四季彩ライン"
    ],
    "lat": 40.107475,
    "lon": 141.027151,
    "pref": "岩手県",
    "city": "八幡平市"
  },
  {
    "station_name": "田山",
    "lines": [
      "十和田八幡平四季彩ライン"
    ],
    "lat": 40.139674,
    "lon": 140.944126,
    "pref": "岩手県",
    "city": "八幡平市"
  },
  {
    "station_name": "兄畑",
    "lines": [
      "十和田八幡平四季彩ライン"
    ],
    "lat": 40.115869,
    "lon": 140.88302,
    "pref": "岩手県",
    "city": "八幡平市"
  },
  {
    "station_name": "湯瀬温泉",
    "lines": [
      "十和田八幡平四季彩ライン"
    ],
    "lat": 40.122384,
    "lon": 140.840292,
    "pref": "秋田県",
    "city": "鹿角市"
  },
  {
    "station_name": "八幡平",
    "lines": [
      "十和田八幡平四季彩ライン"
    ],
    "lat": 40.142881,
    "lon": 140.804496,
    "pref": "秋田県",
    "city": "鹿角市"
  },
  {
    "station_name": "陸中大里",
    "lines": [
      "十和田八幡平四季彩ライン"
    ],
    "lat": 40.158574,
    "lon": 140.793477,
    "pref": "秋田県",
    "city": "鹿角市"
  },
  {
    "station_name": "鹿角花輪",
    "lines": [
      "十和田八幡平四季彩ライン"
    ],
    "lat": 40.188453,
    "lon": 140.785088,
    "pref": "秋田県",
    "city": "鹿角市"
  },
  {
    "station_name": "柴平",
    "lines": [
      "十和田八幡平四季彩ライン"
    ],
    "lat": 40.230751,
    "lon": 140.787941,
    "pref": "秋田県",
    "city": "鹿角市"
  },
  {
    "station_name": "十和田南",
    "lines": [
      "十和田八幡平四季彩ライン"
    ],
    "lat": 40.256069,
    "lon": 140.770716,
    "pref": "秋田県",
    "city": "鹿角市"
  },
  {
    "station_name": "末広",
    "lines": [
      "十和田八幡平四季彩ライン"
    ],
    "lat": 40.229788,
    "lon": 140.737251,
    "pref": "秋田県",
    "city": "鹿角市"
  },
  {
    "station_name": "土深井",
    "lines": [
      "十和田八幡平四季彩ライン"
    ],
    "lat": 40.222452,
    "lon": 140.713142,
    "pref": "秋田県",
    "city": "鹿角市"
  },
  {
    "station_name": "沢尻",
    "lines": [
      "十和田八幡平四季彩ライン"
    ],
    "lat": 40.230342,
    "lon": 140.693288,
    "pref": "秋田県",
    "city": "大館市"
  },
  {
    "station_name": "十二所",
    "lines": [
      "十和田八幡平四季彩ライン"
    ],
    "lat": 40.21429,
    "lon": 140.668211,
    "pref": "秋田県",
    "city": "大館市"
  },
  {
    "station_name": "大滝温泉",
    "lines": [
      "十和田八幡平四季彩ライン"
    ],
    "lat": 40.209751,
    "lon": 140.639625,
    "pref": "秋田県",
    "city": "大館市"
  },
  {
    "station_name": "扇田",
    "lines": [
      "十和田八幡平四季彩ライン"
    ],
    "lat": 40.229235,
    "lon": 140.572472,
    "pref": "秋田県",
    "city": "大館市"
  },
  {
    "station_name": "東大館",
    "lines": [
      "十和田八幡平四季彩ライン"
    ],
    "lat": 40.266005,
    "lon": 140.554745,
    "pref": "秋田県",
    "city": "大館市"
  },
  {
    "station_name": "上盛岡",
    "lines": [
      "JR山田線"
    ],
    "lat": 39.71146,
    "lon": 141.147937,
    "pref": "岩手県",
    "city": "盛岡市"
  },
  {
    "station_name": "山岸",
    "lines": [
      "JR山田線"
    ],
    "lat": 39.71596,
    "lon": 141.171401,
    "pref": "岩手県",
    "city": "盛岡市"
  },
  {
    "station_name": "上米内",
    "lines": [
      "JR山田線"
    ],
    "lat": 39.743855,
    "lon": 141.203825,
    "pref": "岩手県",
    "city": "盛岡市"
  },
  {
    "station_name": "区界",
    "lines": [
      "JR山田線"
    ],
    "lat": 39.65177,
    "lon": 141.351352,
    "pref": "岩手県",
    "city": "宮古市区"
  },
  {
    "station_name": "松草",
    "lines": [
      "JR山田線"
    ],
    "lat": 39.635918,
    "lon": 141.437421,
    "pref": "岩手県",
    "city": "宮古市区"
  },
  {
    "station_name": "川内",
    "lines": [
      "JR山田線"
    ],
    "lat": 39.640744,
    "lon": 141.597548,
    "pref": "岩手県",
    "city": "宮古市"
  },
  {
    "station_name": "箱石",
    "lines": [
      "JR山田線"
    ],
    "lat": 39.617115,
    "lon": 141.625829,
    "pref": "岩手県",
    "city": "宮古市"
  },
  {
    "station_name": "陸中川井",
    "lines": [
      "JR山田線"
    ],
    "lat": 39.597397,
    "lon": 141.68153,
    "pref": "岩手県",
    "city": "宮古市"
  },
  {
    "station_name": "腹帯",
    "lines": [
      "JR山田線"
    ],
    "lat": 39.604539,
    "lon": 141.767434,
    "pref": "岩手県",
    "city": "宮古市"
  },
  {
    "station_name": "蟇目",
    "lines": [
      "JR山田線"
    ],
    "lat": 39.629341,
    "lon": 141.838876,
    "pref": "岩手県",
    "city": "宮古市"
  },
  {
    "station_name": "花原市",
    "lines": [
      "JR山田線"
    ],
    "lat": 39.630233,
    "lon": 141.861308,
    "pref": "岩手県",
    "city": "宮古市"
  },
  {
    "station_name": "千徳",
    "lines": [
      "JR山田線"
    ],
    "lat": 39.632251,
    "lon": 141.9124,
    "pref": "岩手県",
    "city": "宮古市"
  },
  {
    "station_name": "宮古",
    "lines": [
      "JR山田線",
      "三陸鉄道リアス線"
    ],
    "lat": 39.640287,
    "lon": 141.946454,
    "pref": "岩手県",
    "city": "宮古市"
  },
  {
    "station_name": "新津",
    "lines": [
      "JR羽越本線",
      "森と水とロマンの鉄道",
      "JR信越本線(直江津～新潟)"
    ],
    "lat": 37.800383,
    "lon": 139.121445,
    "pref": "新潟県",
    "city": "新潟市秋葉区"
  },
  {
    "station_name": "京ケ瀬",
    "lines": [
      "JR羽越本線"
    ],
    "lat": 37.817616,
    "lon": 139.178322,
    "pref": "新潟県",
    "city": "阿賀野市"
  },
  {
    "station_name": "水原",
    "lines": [
      "JR羽越本線"
    ],
    "lat": 37.836712,
    "lon": 139.217237,
    "pref": "新潟県",
    "city": "阿賀野市"
  },
  {
    "station_name": "神山",
    "lines": [
      "JR羽越本線"
    ],
    "lat": 37.862586,
    "lon": 139.244691,
    "pref": "新潟県",
    "city": "阿賀野市"
  },
  {
    "station_name": "月岡",
    "lines": [
      "JR羽越本線"
    ],
    "lat": 37.889334,
    "lon": 139.272488,
    "pref": "新潟県",
    "city": "新発田市"
  },
  {
    "station_name": "中浦",
    "lines": [
      "JR羽越本線"
    ],
    "lat": 37.912202,
    "lon": 139.302689,
    "pref": "新潟県",
    "city": "新発田市"
  },
  {
    "station_name": "新発田",
    "lines": [
      "JR羽越本線",
      "JR白新線"
    ],
    "lat": 37.94412,
    "lon": 139.335189,
    "pref": "新潟県",
    "city": "新発田市"
  },
  {
    "station_name": "加治",
    "lines": [
      "JR羽越本線"
    ],
    "lat": 37.976411,
    "lon": 139.358535,
    "pref": "新潟県",
    "city": "新発田市"
  },
  {
    "station_name": "金塚",
    "lines": [
      "JR羽越本線"
    ],
    "lat": 38.020178,
    "lon": 139.37949,
    "pref": "新潟県",
    "city": "新発田市"
  },
  {
    "station_name": "中条",
    "lines": [
      "JR羽越本線"
    ],
    "lat": 38.049342,
    "lon": 139.397541,
    "pref": "新潟県",
    "city": "胎内市"
  },
  {
    "station_name": "平木田",
    "lines": [
      "JR羽越本線"
    ],
    "lat": 38.094338,
    "lon": 139.427835,
    "pref": "新潟県",
    "city": "胎内市"
  },
  {
    "station_name": "坂町",
    "lines": [
      "JR羽越本線",
      "JR米坂線"
    ],
    "lat": 38.119277,
    "lon": 139.445838,
    "pref": "新潟県",
    "city": "村上市"
  },